city,hotel_name,score,description,latitude,longitude,temperature,humidity
Le Havre,Duplex lumineux tout confort,8.0,"Duplex lumineux tout confort in Le Havre offers accommodation with free WiFi, 2.3 km from Le Volcan, 2.4 km from Perret Model Appartment and 2.8 km from Saint-Michel's Church. ",49.4862761,0.131625,5,80
Le Havre,Les gîtes Havrais Bis,7.1,"Located within 1.2 km of Le Havre Beach and 1.4 km of Saint-Michel's Church in Le Havre, Les gîtes Havrais Bis provides accommodation with free WiFi and seating area. ",49.5043976,0.1002814,5,80
Bayeux,La Closerie Teranga,9.1,Managed by a private host,49.27804172,-0.70187662,5,81
Amiens,WHITE HOUSE DHAVERNAS,8.6,Managed by a private host,49.8814696,2.2998714,2,87
Le Havre,Le Petit Vatel,7.1,"Le Petit Vatel is located in l’espace Perret, 500 metres from the city hall in La Havre and 1 km from its train station and ferry harbour. Free Wi-Fi access is provided. ",49.491117,0.10451764,5,80
Paris,UCPA SPORT STATION HOSTEL PARIS,8.0,"Featuring a restaurant, bar and views of city, UCPA SPORT STATION HOSTEL PARIS is set in Paris, 3.1 km from Gare du Nord Metro Station. ",48.898133,2.371142,3,80
Mont Saint Michel,Au Mont Pour Deux,8.3,Managed by a private host,48.61349776,-1.48584455,4,85
Chateau du Haut Koenigsbourg,"The Originals Boutique, Hôtel Le Kastelberg, Obernai",8.1,"The Originals Boutique, Hôtel Le Kastelberg, Obernai is located in the famous Kasterlberg Grand Cru vineyard, at the edge of a forest. Free Wi-Fi is available throughout the hotel and restaurant. ",48.38746927,7.42029369,-3,90
Chateau du Haut Koenigsbourg,LA TOUR des fées,9.5,"Set 23 km from Würth Museum, LA TOUR des fées offers accommodation with a bar, a garden and room service for your convenience. Complimentary WiFi is offered. ",48.39372,7.439759,-3,90
Dijon,Apartment Bonnard - best view in Dijon,8.9,Managed by a private host,47.31902668,5.0375203,0,89
Strasbourg,Cozy Appartement Halles Strasbourg,9.5,Managed by a private host,48.5867897,7.7434983,1,84
Besancon,Spacieux 3 chambres refait à neuf,,Managed by a private host,47.2486019,6.0305178,0,88
Grenoble,Cosy-T1-Gare de Grenoble,9.0,Managed by a private host,45.190343,5.7111216,0,88
Annecy,"Annecy Lake, Luxury top floor apartment by LocationlacAnnecy, LLA Selections",9.0,"Set in a central area of Annecy, Annecy Lake, Luxury top floor apartment by LocationlacAnnecy, LLA Selections offers accommodation with mountain views, just 37 km from Bourget Lake and 42 km from...",45.8958075,6.1294522,-1,93
Chateau du Haut Koenigsbourg,Hotel La Mirabelle,9.0,"Hotel La Mirabelle is located in Rheinhausen, 4 km from the Europa-Park. ",48.22580415,7.71240387,-3,90
La Rochelle,Hôtel François 1er,8.1,"Located in the heart of historic La Rochelle, this hotel is set in a 16th century building just a 5 minute walk from the Old Port and local market. ",46.16091143,-1.15203694,4,81
Bayonne,Appartement T2 avec place de parking,9.0,Managed by a private host,43.47827598,-1.50334341,4,81
La Rochelle,Hotel de Paris,7.6,"The Hotel de Paris is located in the city centre of La Rochelle, in a pedestrian street between Place de Verdun and Place du Marché Just a 5-minute walk from the old port and parks, the hotel offers ...",46.16196911,-1.1511746,4,81
Bayonne,Temporesidence Chateauneuf,7.3,"Located in the Aquitaine region, this residence features modern accommodation with wired internet access and a flat-screen TV with cable channels. The sandy beaches of Biarritz are just 8 km away. ",43.48991068,-1.47314027,4,81
Bayonne,Bayonne en plein cœur Centre Historique 2 chambres,8.9,Managed by a private host,43.4890699,-1.4755226,4,81
Bayonne,Temporesidence Cathedrale,7.9,"Located in Bayonne, Temporesidence Cathedrale is just 2.5 km from the train station and 6 km from Biarritz. It offers spacious apartments and studios with a fully equipped kitchenette. ",43.48954193,-1.47812448,4,81
Bayonne,Pia Baïona,8.6,Managed by a private host,43.4925466,-1.4751766,4,81
Bayonne,Duplex Typique Centre Bayonne,9.2,Managed by a private host,43.489894,-1.473892,4,81
Bayonne,Hôtel Le Bayonne,7.8,"Set in central Bayonne in the Aquitaine region, Hôtel Le Bayonne offers a seasonal, heated outdoor swimming pool. Guests are invited to use the hammam. ",43.4850262,-1.47537053,4,81
Bayonne,Hotel Restaurant Les Genets,7.6,"Located 1.5 km from the A63 motorway outside of Bayonne, Hotel Restaurant Les Genets offers soundproofed guest rooms and local specialities are served in the restaurant. ",43.46494896,-1.49584383,4,81
Bayonne,"2 bedrooms on cosy apartment, balcony on the river",,Managed by a private host,43.4859666,-1.4612818,4,81
Bayonne,Péniche DJEBELLE,9.5,"Featuring a shared lounge, terrace and free WiFi, Péniche DJEBELLE is located in Bayonne, 16 km from Biarritz La Négresse Train Station and 26 km from Saint Jean de Luz Train Station. ",43.496335,-1.473749,4,81
Bayonne,T3 avec sa terrasse ensoleillée,8.8,Managed by a private host,43.50708131,-1.47534745,4,81
Bayonne,jeu de paume,8.9,Managed by a private host,43.4898477,-1.4718019,4,81
Bayonne,Le Petit Nid Douillet de Jéjé,,Managed by a private host,43.49405931,-1.4682464,4,81
Bayonne,Charming flat in a calm street at the historic heart of Bayonne - Welkeys,9.2,"Charming flat in a calm street at the historic heart of Bayonne - Welkeys in Bayonne provides accommodation with free WiFi, 11 km from Biarritz La Négresse Train Station, 21 km from Saint Jean de Luz...",43.4888387,-1.477028,4,81
Bayonne,Boutique Hôtel Un Appart en Ville,8.8,"Situated 12 km from Biarritz La Négresse Train Station and 22 km from Saint Jean de Luz Train Station, Boutique Hôtel Un Appart en Ville in Bayonne features air-conditioned accommodation with views of...",43.4909225,-1.4774412,4,81
Bayonne,Hostel 20 Bayonne,7.8,"Featuring a bar and a shared lounge, Hostel 20 Bayonne is located in Bayonne, 15 km from Biarritz La Négresse Train Station and 25 km from Saint Jean de Luz Train Station. ",43.49535,-1.468753,4,81
Bayonne,Appart'Hôtel Bellevue,8.5,"Set in a garden, Appart'Hôtel Bellevue is located in Bayonne with Saint-Marie Cathedral just 2.4 km from the property. Free private parking and free WiFi access are available on site. ",43.50579423,-1.45608832,4,81
Bayonne,ibis budget Bayonne,7.7,"Located 2 km from Bayonne historic centre and train station, and 8 km from the beaches, ibis budget Bayonne has a 24-hour front desk, free Wi-Fi and free parking. ",43.48908262,-1.45717809,4,81
Bayonne,Beautiful flat with a view on the Nive river in Bayonne - Welkeys,7.0,"Offering free WiFi and city views, Beautiful flat with a view on the Nive river in Bayonne - Welkeys is an accommodation located in Bayonne. ",43.4894916,-1.4740525,4,81
Bayonne,Hotel Loreak,7.9,Hotel Loreak is located 2 km from Bayonne city centre and offers en-suite accommodation with free Wi-Fi internet access and a flat-screen TV. ,43.49349109,-1.45263344,4,81
Bayonne,Parc 709 Bayonne,9.2,Managed by a private host,43.495606,-1.481317,4,81
Bayonne,Maison d'hôtes City Break MIRADOUR,8.7,"Set in Bayonne, Maison d'hôtes City Break MIRADOUR has well-equipped accommodation featuring free WiFi, 12 km from Biarritz La Négresse Train Station and 22 km from Saint Jean de Luz Train Station. ",43.489513,-1.479078,4,81
Bayonne,Hôtel Villa KOEGUI Bayonne,9.0,"Hôtel Villa KOEGUI Bayonne has a restaurant, fitness centre, a bar and shared lounge in Bayonne. This property also provides guests with a terrace. ",43.492371,-1.472588,4,81
Bayonne,Hotel Cote Basque,7.8,"This hotel sits in the heart Bayonne’s historical town, in front of the Saint Esprit bridge. It offers free Wi-Fi and en suite rooms. ",43.49618306,-1.46960109,4,81
Bayonne,Villa la Renaissance,9.2,"Villa la Renaissance offers rooms in Bayonne, 600 metres from Ansot Park and 1.2 km from Saint Marie Cathedral. Featuring room service, this property also provides guests with a terrace. ",43.482321,-1.468164,4,81
La Rochelle,Hôtel Le Yachtman,8.2,"Located in La Rochelle, Le Yachtman features a heated swimming pool and a terrace with views of the harbour. It offers en suite accommodation and is just 500 metres from the train station. ",46.15728365,-1.14996761,4,81
La Rochelle,Hotel de La Paix,7.6,"Located in the heart of the city and footsteps from the old port of La Rochelle, the hotel welcomes you in a genuine 18th century ship owner’s residence Set between the Market Place and Verdun Square...",46.16193939,-1.15085542,4,81
La Rochelle,Un Hotel sur le Port,8.1,"Un Hotel sur le Port is located in the heart of La Rochelle, 5 minutes from the aquarium and the tourist office. Each guest room has a private bathroom, flat-screen TV and Wi-Fi internet. ",46.15612058,-1.1489135,4,81
La Rochelle,Best Western Premier Masqhotel,8.6,"The Best Western Masqhotel is a design hotel located a 5-minute walk from La Rochelle’s Vieux Port. It offers contemporary rooms, a lounge bar and free WiFi. ",46.15483672,-1.14505649,4,81
La Rochelle,Les EcoloGites de la Rochelle,8.2,Managed by a private host,46.1428736,-1.1454589,4,81
La Rochelle,La Suite,8.4,Managed by a private host,46.158813,-1.153734,4,81
La Rochelle,Central Park Hôtel & Spa,8.7,"The 4-star Central Park Hôtel & Spa is situated a 10-minute walk from the heart of La Rochelle, within walking distance from the beach, and next to the Old Harbour. ",46.15891333,-1.16082335,4,81
La Rochelle,5 appartements indépendants situés à mi-chemin entre le Vieux Port et le Pont de l île de Ré,7.9,"Set 2.8 km from L'Espace Encan and 3.3 km from Parc Expo de La Rochelle, Europe offers accommodation in La Rochelle. Europe features views of the sea and is 2.2 km from La Rochelle Grosse Cloche. ",46.16886397,-1.17459647,4,81
La Rochelle,Lagrange Apart'Hotel l’Escale Marine,7.3,"Located in La Rochelle, beside Port des Minimes, this residence offers a covered, heated pool and a well being centre. It is a 5-minute walk from the Aquarium and the Vieux Port. ",46.15107012,-1.15486329,4,81
La Rochelle,Maison des Ambassadeurs,8.6,"Nestled in the heart of La Rochelle and set in an 18th-century building, Maison des Ambassadeurs is just a 5-minute walk from the Old Harbour and offers a 24-hour front desk as well as a concierge...",46.16282553,-1.15110219,4,81
La Rochelle,Hôtel Le Rochelois,7.9,Hôtel Le Rochelois features a seasonal outdoor swimming pool and a tennis court. WiFi is free of charge throughout the property. ,46.15418175,-1.18243652,4,81
La Rochelle,Petite Roche,8.8,"Situated in La Rochelle, 1.4 km from Concurrence and 1 km from La Rochelle Train Station, Petite Roche features city views and free WiFi. ",46.1598788,-1.1464518,4,81
La Rochelle,La Rochelle sur L'eau,9.3,"La Rochelle sur L'eau features sea views, free WiFi and free private parking, located in La Rochelle, 800 metres from Minimes. ",46.14667561,-1.16817349,4,81
La Rochelle,Résidence Pierre & Vacances Centre,7.2,"Located in La Rochelle, this Pierre & Vacances residence is a 5-minute walk from the Old Harbour and 300 metres from the TGV Train Station. It has a heated indoor swimming pool and a terrace. ",46.15576943,-1.14639223,4,81
La Rochelle,ATHOME RESIDENCE ET SPA,8.2,"Situated in La Rochelle, ATHOME RESIDENCE ET SPA features free WiFi, and guests can enjoy a bar, a shared lounge and a garden. ",46.145995,-1.152398,4,81
La Rochelle,HÔTEL DE VILLE 2,8.0,"Offering free WiFi and city views, HÔTEL DE VILLE 2 is an accommodation set in a central area of La Rochelle, just 1.1 km from Concurrence and 1.1 km from La Rochelle Train Station. ",46.1601293,-1.152081,4,81
La Rochelle,Séjours & Affaires La Rochelle Les Minimes,7.5,"The Séjours & Affaires Les Minimes is located in La Rochelle, just a few steps from the harbour and only a 15-minute walk from the train station and the marina. ",46.14584493,-1.15611792,4,81
La Rochelle,Hôtel La Monnaie Art & Spa,8.6,"Ideally set in the historic La Rochelle, this 17th-century building overlooks the old harbour. Hôtel De La Monnaie is decorated by artworks and features a terrace and a wellness centre. ",46.1563008,-1.15810812,4,81
La Rochelle,Le Champlain,8.7,Le Champlain is located opposite Parc Charruyer in the heart of La Rochelle. It offers spacious air-conditioned rooms with flat-screen cable TV and free WiFi. ,46.16357605,-1.1541599,4,81
La Rochelle,Appart'City La Rochelle,7.2,This Appart'city is a 10-minute walk from La Rochelle Train Station and 15 minutes from the Old Port and the Old Town. It offers contemporary accommodation with a seating area and an LCD TV. ,46.15844669,-1.14101171,4,81
La Rochelle,Maisons du Monde Hôtel & Suites - La Rochelle Vieux Port,8.4,Maisons du Monde Hôtel & Suites - La Rochelle Vieux Port is located in La Rochelle on the harbour. It offers free WiFi throughout the entire hotel. ,46.15619304,-1.15443483,4,81
La Rochelle,Hôtel Le Transatlantique - Lycée Hôtelier La Rochelle,8.8,"Located in La Rochelle, 2.5 km from Parc Expo de La Rochelle,  The hotel and catering school property is around 5 km from La Rochelle Grosse Horloge, 1.5 km from Musée Maritime de La Rochelle and 1.8...",46.143734,-1.160263,4,81
Besancon,Le Voyageur,6.7,"Set in Besançon, 500 metres from Besancon Viotte Train Station, 1.1 km from Besançon-Mouillère train station and 5.3 km from Micropolis, Le Voyageur offers accommodation with a terrace and free WiFi. ",47.2477178,6.0270496,0,88
La Rochelle,Hotel La Fabrique,8.4,Hotel La Fabrique offers accommodation in La Rochelle. Guests can enjoy the on-site bar. Rooms come with a flat-screen TV. Hôtel La Fabrique features free WiFi throughout the property. ,46.156155,-1.148583,4,81
Besancon,Appart'Hôtel Luxapparts,8.7,Managed by a private host,47.23733956,6.03551203,0,88
Besancon,"Le Bellevue - Parc, Gare et Vieille ville",,Managed by a private host,47.2459538,6.0230912,0,88
Besancon,Hôtel Fontaine Argent - Centre Ville,8.5,"Hôtel Fontaine Argent - Centre Ville is set in Besançon, 6.6 km from Micropolis and 13 km from Besançon Franche-Comté TGV train station. ",47.246146,6.033186,0,88
Besancon,Contact Hôtel Foch,7.0,"Situated a few steps from the Besançon train station and just 5 minutes from the city centre, the Hotel Foch offers quality comfort at an affordable price This charming hotel provides a panoramic vie...",47.24619696,6.02335095,0,88
Besancon,Hotel Vauban,8.5,"Located in Besançon, Hotel Vauban a 2-minute walk from the Museum of Fine Arts and an 18-minute walk from the Citadel of Besançon. It offers free internet access, a 24-hour front desk and a terrace. ",47.23986296,6.02139884,0,88
Besancon,Brit Hotel Besancon l'Horloge,7.5,"Set in Besançon, 3.2 km from Besancon Viotte Train Station, Brit Hotel Besancon l'Horloge offers accommodation with a bar, free private parking, a shared lounge and a terrace. ",47.26358654,6.05153292,0,88
Besancon,Mercure Besancon Parc Micaud,7.6,This Hotel Mercure is situated in the city centre of Besancon in the casino garden on the Doubs River and opposite the Micaud Park. ,47.24228752,6.03179455,0,88
Besancon,Hotel Restaurant Vesontio,8.5,"Located 5 km from the centre of Besançon and the Musée des Beaux-Arts, Hotel restaurant Vesontio offers an air-conditioned restaurant and a meeting room. Free WiFi is available throughout. ",47.25904854,6.00806236,0,88
Besancon,ATELIER DES REVES - au coeur de Besancon - 88 m2,9.6,Managed by a private host,47.2396698,6.0343043,0,88
Besancon,Zenitude Hôtel-Résidences La City,7.8,This Zenitude Hôtel-Résidences La City is located in Besançon and offers studios and apartments with free WiFi access. It is next to the Doubs River and 2 km from the town’s train station. ,47.23568252,6.0140115,0,88
Besancon,Hotel Régina,7.8,"Featuring a terrace, Hotel Régina is set in the centre of Besançon, close to Besançon-Mouillère train station, Besancon Viotte Train Station and Time museum of Besançon. ",47.23664,6.025664,0,88
Besancon,Hotel Victor Hugo & Spa,8.4,Hotel Victor Hugo & Spa offers accommodation 50 metres from Viotte train station and just 15 minutes' walking distance from the historic city centre of Besançon. Many rooms open onto an inner garden. ,47.24741871,6.02364331,0,88
Besancon,Hotel Restaurant Siatel Chateaufarine,7.8,This hotel is located 7.5 km from the centre of Besançon in the Franche-Comté region and offers free Wi-Fi. Guests are invited to relax on the terrace or use the billiards table in the on-site bar. ,47.21613222,5.94183326,0,88
Besancon,Doubs Hotel - Besançon Ecole Valentin,8.0,Doubs Hotel - Besançon Ecole Valentin is a 3-star hotel with a terrace located in Besançon. The hotel features a shared lounge and free WiFi. ,47.27069957,5.99509656,0,88
Besancon,Zenitude Hôtel-Résidences Les Hauts Du Chazal,7.9,"This residence is located next to the big shopping center Chateaufarineau, only 15 minutes away from the city centre. ",47.22448656,5.95612407,0,88
Besancon,Hotel Du Nord,8.1,"This hotel is set in the heart of Besançon, just 700 metres from the banks of the Doubs River. Guests have free Wi-Fi internet access and are invited to relax in the hotel's lounge bar. ",47.23727603,6.02586955,0,88
Besancon,All Suites Besançon,7.9,"Situated in Besançon, within 3.3 km of Besancon Viotte Train Station and 4.4 km of Besançon-Mouillère train station, All Suites Besançon features accommodation with a garden and free WiFi throughout...",47.25435723,5.99548012,0,88
Besancon,Hôtel Restaurant Spa Le Sauvage,8.8,"Hôtel Restaurant Spa Le Sauvage, formerly the Clarisses Monestary, is located in the historic district of Besançon, 500 metres from the citadel's ancient walls. ",47.23171767,6.02759153,0,88
Besancon,Hôtel de Paris,8.3,"Located in the centre of Besançon, Hôtel de Paris offers contemporary décor, a 24-hour reception and terrace. The Besançon Citadelle is just a 15-minute walk away. Vesoul is 48 km from the property. ",47.23856537,6.02532506,0,88
Besancon,Hôtel AKENA BESANCON,8.5,"Situated in Besançon, 10 km from Micropolis, Hôtel AKENA BESANCON features accommodation with a restaurant, free private parking, a bar and a terrace. ",47.23547525,5.9000854,0,88
Besancon,ibis Styles Besançon,7.8,"Conveniently located in a park, ibis Styles Besançon is a 15-minute walk from the TGV Train Station and the centre of Besançon. It features an outdoor swimming pool with a sun terrace and free Wi-Fi. ",47.25425346,6.0216397,0,88
Besancon,ibis Besançon Centre Ville,8.3,"Located in the old town of Besançon, ibis Besançon Centre Ville is 500 metres from Viotte Train Station and both the Vauban Citadel and the Museum of Fine Arts can be found within a 20-minute walk. ",47.24045605,6.02599533,0,88
Besancon,Best Western Citadelle,8.1,"Best Western Citadelle is situated in Besançon’s historic town centre, a 5-minute walk from the River Doubs and the citadel. It offers free WiFi in the hotel rooms. ",47.231541,6.02658033,0,88
Strasbourg,Médicis Home Strasbourg,8.3,"Our senior residence opens its doors to you. Living at the Villa Médicis Strasbourg means enjoying the good life in a friendly setting, elegant and secure environment to make your old age a beautiful...",48.5732564,7.76572449,1,84
Strasbourg,Résidence La Canopée,8.3,"Résidence La Canopée is located in the Quartier Européen - Orangerie district of Strasbourg, less than 1 km from Strasbourg Christmas Market and a 14-minute walk from Strasbourg Cathedral. ",48.59274972,7.74505986,1,84
Strasbourg,Domitys Les Etoiles d'Argent,9.0,"Offering an indoor pool and a spa and wellness centre, Domitys Les Etoiles d'Argent offers self-catering accommodation set in a Senior Residence located on the outskirts of Strasbourg. ",48.60411391,7.70161988,1,84
Annecy,La petite Venise,8.5,Managed by a private host,45.9014158,6.1239177,-1,93
Annecy,Le 3 de Coeur Annecy,8.6,Managed by a private host,45.89979277,6.12620108,-1,93
Dijon,Hôtel De Paris,7.0,"Just a 5-minute walk from the historic centre of Dijon and 100 metres from the Train Station, Hôtel de Paris features contemporary rooms with free Wi-Fi and a bar with a terrace. ",47.32343058,5.03017455,0,89
Dijon,Campanile Dijon Congrès Clemenceau,8.1,"Located in Dijon, Campanile Dijon Congrès Clémenceau offers air-conditioned guest rooms and free Wi-Fi access throughout. ",47.32874479,5.05931675,0,89
Annecy,le panorama du lac,7.7,Managed by a private host,45.89464468,6.13043418,-1,93
Dijon,Appart’City Dijon – Toison D’or,7.0,Appart'City Dijon - Toison D'or is located 10 minutes from the centre of Dijon in the Toison d’Or Technological Park. It offers 2 and 3-room apartment suites with free WiFi internet access. ,47.35495715,5.03765523,0,89
Dijon,Mercure Dijon Centre Clemenceau,8.0,"Mercure Dijon Centre Clémenceau is a 4-star non-smoking hotel in the city centre of Dijon, opposite the Auditorium and the Convention Centre. ",47.32814395,5.05142838,0,89
Dijon,Oceania Le Jura Dijon,8.4,"The Hôtel Le Jura is located in the city centre, 200 metres from the train station and a 10-minute tram ride from the Palais de Congrès. ",47.3236074,5.03021546,0,89
Strasbourg,Hôtel de l'Europe by HappyCulture,8.1,"Hôtel de l'Europe by HappyCulture provides en suite accommodation in Petite France, the historic pedestrian area of Strasbourg’s city centre and is 500 metres from Notre Dame Cathedral. ",48.582097,7.74293996,1,84
Strasbourg,Le Grand Elsau - WIFI - Parking gratuit - 15 min centre,8.3,Managed by a private host,48.5647302,7.7266134,1,84
Strasbourg,Hotel des Arts - Centre Cathédrale,8.0,Hôtel Des Arts is located in the heart of the pedestrian area in the centre of historical Strasbourg. It offers comfortable accommodation with air conditioning and free Wi-Fi. ,48.58031945,7.75127023,1,84
Strasbourg,"voco Strasbourg Centre - The Garden, an IHG Hotel",8.4,"Boasting a garden and a restaurant, Voco - Strasbourg Centre - The Garden - Garden is set in Strasbourg. With a terrace, the property also features a shared lounge, as well as a bar. ",48.589685,7.739508,1,84
Strasbourg,Ciarus,8.2,"Located in Strasbourg, this hotel is just 600 metres from the Palace of the Rhine and a 15-minute walk from Strasbourg Cathedral. ",48.5893507,7.7475403,1,84
Strasbourg,Residence Inn by Marriott Strasbourg,7.9,"Situated in Strasbourg, 200 metres from Strasbourg Exhibition Centre, Residence Inn by Marriott Strasbourg features air-conditioned accommodation and a bar. ",48.59899457,7.76217318,1,84
Strasbourg,AC Hotel by Marriott Strasbourg,8.9,"Set in Strasbourg, 200 metres from Strasbourg Exhibition Centre, AC Hotel by Marriott Strasbourg offers air-conditioned rooms and a bar. ",48.59900335,7.76195994,1,84
Strasbourg,HANNONG Hotel & Wine Bar,8.6,"The Hannong Hotel is located in the heart of Strasbourg, just a 5-minute walk from the TGV train station, Petite France district and the Cathedral. It offers free Wi-Fi access. ",48.58279611,7.74312839,1,84
Strasbourg,Aparthotel Adagio Access Strasbourg Petite France,8.2,"Located in the city centre, this Aparthotel with a 24-hour reception is just 1.5 km from Strasbourg Cathedral.  Free WiFi access and a fully equipped kitchen are in the modern studios and apartments. ",48.57924766,7.73222588,1,84
Strasbourg,Hôtel Tandem - Boutique Hôtel,9.0,"Located opposite Strasbourg TGV Train Station, this eco-friendly Boutique Hotel is just 1.7 km from the city centre and a 5-minute walk from the picturesque Petite France district. ",48.58383633,7.73494899,1,84
Strasbourg,Citadines Kléber Strasbourg,8.2,"Located next to Place Kléber, this Citadines Apart'hotel is just a 10-minute walk from Strasbourg SNCF Train Station. ",48.58384564,7.74342477,1,84
Strasbourg,Le Grand Hotel,8.2,"Located opposite Strasbourg train station, the Grand Hotel is located a 10-minute walk from the city centre and Place Kléber. It offers a bar, terrace and free Wi-Fi access. ",48.58469688,7.736561,1,84
Strasbourg,"Holiday Inn Express Strasbourg Centre, an IHG Hotel",8.0,"Located a 10-minute walk from Strasbourg’s pedestrian area, Holiday Inn Express Centre offers free internet access and a free buffet continental breakfast. ",48.57154052,7.74525492,1,84
Strasbourg,Avenue de La Paix - L'Exclusif,9.2,"Located in Strasbourg, 500 metres from St. Paul's Church, Avenue de La Paix - L'Exclusif provides accommodation with a garden, free WiFi, a 24-hour front desk, and an ATM. ",48.588792,7.755187,1,84
Strasbourg,Appart'City Strasbourg Centre,7.7,"Conveniently located in the centre of Strasbourg, Appart'City Strasbourg is a 10-minute walk from the train station. ",48.57772068,7.73397669,1,84
Strasbourg,Citadines Eurometropole Strasbourg,8.6,"Situated in Strasbourg, 3.6 km from Zénith de Strasbourg, Citadines Eurometropole Strasbourg features a restaurant, and a spa and wellness centre with a indoor pool, a fitness room and a Turkish bath....",48.60427412,7.70446112,1,84
Strasbourg,145m² city center 4 bedrooms view of the Cathedral,8.0,"Boasting city views, 145m² city center 4 bedrooms view of the Cathedral features accommodation with a balcony and a kettle, around 800 metres from Strasbourg Cathedral. ",48.5804957,7.7563554,1,84
Strasbourg,City Résidence Strasbourg Centre,7.0,City Résidence Strasbourg Centre is located 1 km from Strasbourg Train Station and 1.5 km from La Petite France district in Strasbourg city. ,48.58906194,7.73879863,1,84
Strasbourg,Studio Parc des Contades,9.7,Managed by a private host,48.5928691,7.7591739,1,84
Strasbourg,Séjours & Affaires Strasbourg Kleber,7.9,"This residence offers comfortable, self catering accommodation. It is in a quiet road in the city centre, a 5-minute walk from the historic Petite France district and Strasbourg Cathedral. ",48.58319667,7.74285212,1,84
Strasbourg,City Residence Access Strasbourg,6.9,"Located in Strasbourg within 900 metres of Strasbourg Christmas Market, City Residence Access Strasbourg features accommodation with a TV and a kitchenette. ",48.590014,7.73987,1,84
Annecy,Rivage Hôtel & Spa Annecy,8.9,"Featuring 4-star accommodation, Rivage Hôtel & Spa Annecy is set in Annecy, 2.1 km from Palais de l Ile and 2.2 km from Chateau d'Annecy. ",45.905699,6.151953,-1,93
Annecy,Séjours & Affaires Annecy Le Pont Neuf,7.3,The Séjours & Affaires Annecy Le Pont Neuf is located 3 km from Lake Annecy and 1 km from Annecy’s historic centre. ,45.89719347,6.11080974,-1,93
Annecy,Douceur et confort à 3 min du lac - parking,9.2,"Located 37 km from Bourget Lake, 38 km from Stade de Genève and 41 km from Jet d'Eau, Douceur et confort à 3 min du lac - parking provides accommodation situated in Annecy. ",45.9046032,6.1301354,-1,93
Annecy,Best Western Hotel International,8.1,"Featuring a fitness centre with a hammam and hot tub, Best Western Hotel International is situated at the entrance of Annecy, 2 km from Annecy Lake and city centre. ",45.89998968,6.11575842,-1,93
Annecy,Apartment in the heart of the old town of Annecy and close to the lake,9.0,"Situated in the centre of Annecy, just 37 km from Rochexpo and 38 km from Bourget Lake, Apartment in the heart of the old town of Annecy and close to the lake features accommodation with city views...",45.8994517,6.1263942,-1,93
Annecy,Atipik Hôtel Alexandra,8.3,"Situated 200 metres from the shores of Lake Annecy, Atipik Hôtel Alexandra is at the entrance of the medieval old town and pedestrian shopping streets. It offers en suite rooms with free WiFi. ",45.90122721,6.12507373,-1,93
Annecy,Cosy au bord du lac avec terrasse privée,8.7,Managed by a private host,45.907292,6.1471642,-1,93
Annecy,Hôtel du Château,8.5,Hotel du Chateau is a hotel situated at the foot of Annecy Castle. It has views over the old town. The reception offers free WiFi. Guest rooms at the Hotel du Chateau are simply decorated. ,45.89789347,6.12520516,-1,93
Annecy,Allobroges Park Hôtel,8.7,"Set in Annecy City Centre, this 3-star hotel is located a 10-minute walk from Annecy Chateau. It has a 24-hour reception and offers free WiFi access. ",45.90218661,6.12380505,-1,93
Annecy,Hôtel du Nord,8.3,"Hotel du Nord, is located in the centre of Annecy and offers 2-star accommodation a few minutes from the lake, shops, bars, restaurants and train station. It offers 24/7 reception and free WiFi. ",45.90205968,6.12464726,-1,93
Annecy,Aparthotel Adagio Annecy Centre,8.3,"Offering a fitness centre, Aparthotel Adagio Annecy Centre features studios and apartments with free WiFi in central Annecy. ",45.90320198,6.12267315,-1,93
Annecy,Hôtel Catalpa,8.3,"Set just off the banks of Lake Annecy, this hotel offers free high speed WiFi throughout and is 1.5 km from the centre of town. You can relax on the public beach, 300 metres away. ",45.90551449,6.14412814,-1,93
Annecy,Hôtel du Palais de l'Isle,8.3,"This hotel is located in the heart of Annency, a few steps from the castle. It offers individually-decorated rooms with views of the canals, the medieval castle or the town. ",45.89819586,6.12748235,-1,93
Annecy,APPALACHES Annecy Rent Lodge,9.1,"In a central area of Annecy, set around 37 km from Rochexpo, APPALACHES Annecy Rent Lodge offers free WiFi, air conditioning, and household amenities such as Electric kettle and a fridge. ",45.8990746,6.1281462,-1,93
Annecy,Hôtel de Bonlieu,8.4,"Located 500 metres away from Lake Annecy, and a 12-minute walk from Annecy castle, Hôtel de Bonlieu offers accommodation with free WiFi and a 24-hour front desk. ",45.90349688,6.12847745,-1,93
Annecy,Hôtel des Alpes,8.4,"The Hôtel des Alpes offers 2-star accommodation a 10-minute walk from Lake Annecy and 100 meters away from the train station. The old city, shops and restaurants are within walking distance. ",45.90163038,6.12292528,-1,93
Annecy,L'Eau Vive - sauna et jacuzzi en centre piéton,9.7,"Conveniently set in the centre of Annecy, L'Eau Vive - sauna et jacuzzi en centre piéton offers a balcony, air conditioning, free WiFi and flat-screen TV. ",45.8990435,6.1245071,-1,93
Annecy,Ace Hotel Annecy,8.0,"Offering a 24-hour front desk, Ace Hotel Annecy is located in Seynod. Free WiFi access is available in public areas and the rooms. The property is within 5 km from Lake Annecy and Annecy’s city...",45.88008995,6.09713048,-1,93
Annecy,Majord'Home Spa 5* - La Source Cœur Vieille Ville,8.0,"Boasting a spa bath, Majord'Home Spa 5* - La Source Cœur Vieille Ville is situated right in the heart of Annecy. ",45.898066,6.1272922,-1,93
Annecy,L'étoile annécienne - T3 80 m - Terrasse,8.5,"Located in Annecy, 35 km from Rochexpo, 36 km from Bourget Lake and 41 km from Stade de Genève, L'étoile annécienne - T3 80 m - Terrasse provides accommodation with a patio and free WiFi. ",45.900925,6.124961,-1,93
Annecy,LE MIRAGE - Annecy Centre - Appartement de luxe - V-RENT,8.7,"Set in the centre of Annecy, just 35 km from Rochexpo and 35 km from Bourget Lake, LE MIRAGE - Annecy Centre - Appartement de luxe - V-RENT offers accommodation with mountain views and free WiFi. ",45.8986729,6.11759,-1,93
Dijon,Kyriad Prestige Dijon Nord - Valmy,8.3,"With a 24-hour reception desk, this Kyriad Prestige hotel is located 5 km from Dijon Train Station. It offers free Wi-Fi internet access, free private parking onsite and a bar. ",47.360673,5.049353,0,89
Dijon,Le Clos des Jardins,9.1,Managed by a private host,47.32806104,5.02349069,0,89
Dijon,Hôtel Le Chambellan,7.5,"Hotel Le Chambellan is housed in a 17th-century building in Dijon city centre. Its location is ideal for visiting churches and museums, of which there are 7 within a 15-minute walk. ",47.32178557,5.04516609,0,89
Dijon,Au jardin des plantes,9.1,Managed by a private host,47.319778,5.028708,0,89
Dijon,Chambre d'hôtes Le Petit Tertre,8.9,"Le Petit Tertre is located in the centre of Dijon, a 3-minute walk from the Palace of the Dukes of Burgundy and offers free Wi-Fi. All apartments are fully furnished in an 18th century style. ",47.32396148,5.04365131,0,89
Dijon,ibis Dijon Gare,7.8,"Located opposite Dijon Train Station, the ibis Dijon Gare Hotel is just a 10-minute walk from the historic city centre. It offers air-conditioned rooms equipped with a radio and free WiFi. ",47.32223149,5.02388611,0,89
Dijon,Hôtel Montchapet Dijon Centre,8.1,"The Hôtel Montchapet is located in the heart of Dijon, just a 10-minute walk to Gare de Dijon-Ville. It offers soundproofed accommodation and free Wi-Fi. ",47.32742402,5.03345892,0,89
Dijon,"Holiday Inn Dijon Toison D'or, an IHG Hotel",7.9,"Offering a spa with sauna, hammam and fitness centre, the Holiday Inn is located just outside Dijon’s historic city centre, in the heart of the Toison d’Or Technological Park. ",47.3557,5.052,0,89
Dijon,Home Confort,7.6,Managed by a private host,47.32230496,5.02548003,0,89
Dijon,Le Contemporain - Centre-Ville - Balcon - Parking - Arrivée Autonome,8.0,Managed by a private host,47.3285456,5.0547812,0,89
Dijon,La parenthèse,9.3,Managed by a private host,47.32655765,5.0347366,0,89
Dijon,Benigne Malyon,9.6,"Housed in a former 16th century Italian Renaissance-style hotel, Benigne Malyon offers accommodation in Dijon. The apartment is 400 meters from Palais des ducs et des Etats de Bourgogne. ",47.3231056,5.04330485,0,89
Dijon,Hôtel République,8.0,This 18th-century coaching hotel is located in a peaceful street in the historical centre of Dijon. It offers a modern and elegant setting and free Wi-Fi access. ,47.32570141,5.04478052,0,89
Dijon,"Holiday Inn Express Dijon, an IHG Hotel",8.0,"Offering an outdoor pool, Holiday Inn Express Dijon is located in Saint-Apollinaire. The air-conditioned hotel offers 24-hour reception, a sun terrace and a bar. ",47.3269991,5.07608727,0,89
Dijon,Kyriad Direct DIJON NORD,7.4,"Located a 12-minute drive from Dijon city centre, Hôtel Kyriad Direct DIJON NORD has features air-conditioned room with free WiFi, meeting rooms and a restaurant. ",47.35121566,5.0696674,0,89
Dijon,Hôtel des Ducs,8.5,"This hotel is located in historic centre of Dijon, listed as a World Heritage site by Unesco, 50 metres from The Palace of the Dukes. It offers a bar and free Wi-Fi. ",47.32170512,5.04365332,0,89
Dijon,Odalys City Dijon Les Cordeliers,8.0,"Odalys City Dijon Les Cordeliers is located in the historic centre of Dijon. Set in a former cloister, the apart hotel offers en suite rooms and self-catering accommodations. ",47.31827001,5.04011462,0,89
Dijon,ETHIC ETAPES DIJON Accueil 24h24 et parking gratuit,6.8,"Located in Dijon, this hotel offers free WiFi access and a 24-hour reception. It is 4 km from Dijon Ville Train Station and 800 metres from an access road to the A6 motorway. ",47.33639883,5.06139278,0,89
Dijon,City Loft Apparthotel,8.1,"Ideally located in the heart of the pedestrian quarter, close to the Palais des Ducs. ",47.32268695,5.03817558,0,89
Grenoble,Brit Hotel Suisse et Bordeaux - Centre Gare,7.7,Brit Hotel Suisse et Bordeaux - Centre Gare is located near a pedestrian and commercial street in Grenoble city centre. ,45.19051921,5.71601942,0,88
Grenoble,Residhotel Le Central'Gare,7.7,"Situated opposite the train station and close to the lively Grenette square, the Residhotel Le Central'Gare offers self-catering accommodation with free WiFi. ",45.19085898,5.71572438,0,88
Grenoble,Hotel Lux,7.9,"Centrally located in Grenoble, only 50 metres from restaurants and bars, Hotel Lux Grenoble offers rooms with free WiFi. Grenoble Train Station is only a 3-minute walk away. ",45.189522,5.716226,0,88
Grenoble,Adagio Grenoble Centre,7.2,"Adagio Grenoble Centre is located in the Europole business district of Grenoble, a 5-minute walk from the city’s TGV Train Station and a 10-minute walk from the city centre. ",45.18960902,5.7121785,0,88
Grenoble,Hôtel Victoria,8.5,"Ideally set in the centre of Grenoble, Hôtel Victoria offers free WiFi throughout the property and free private parking for guests who drive. ",45.187494,5.721472,0,88
Grenoble,The Originals Residence KOSY appart'hôtels - Les Cèdres,7.2,"KOSY Appart'hôtels is located in Grenoble, just a 10-minute walk from the city centre and 31 km from the ski slopes in Chamrousse. ",45.17894378,5.73206306,0,88
Grenoble,Tempologis Grenoble,8.2,Tempologis Grenoble is located in Grenoble and offers self-catering accommodation. Free WiFi access is available. The property is 1 km from Paul Mistral Park and 2.5 km from Grenoble Train Station. ,45.1792734,5.73433891,0,88
Grenoble,GUEST-K President - Grenoble Centre,8.7,Managed by a private host,45.1786561,5.7202181,0,88
Grenoble,B&B HOTEL Grenoble Centre Alpexpo,7.5,"This B&B hotel is located in Grenoble, just 800 metres from Alpexpo. With a 24-hour reception, it offers a free Wi-Fi connection and soundproofed accommodation. ",45.15883667,5.73443547,0,88
Grenoble,Maison Barbillon Grenoble,8.2,"Maison Barbillon Grenoble is located in Grenoble, just 100 metres from the train station. It offers comfortable guest rooms with satellite TV and free WiFi Internet access. ",45.1907933,5.71669668,0,88
Grenoble,Residhotel Grenette,7.5,"Residhotel Grenette is located in central Grenoble, a 3-minute walk away from Place Victor Hugo. It offers self-catering accommodation with free WiFi. ",45.19056363,5.72448447,0,88
Grenoble,Kyriad Grenoble Centre,7.6,"Located 200 metres from Stade Lesdiguières, Kyriad Grenoble Centre offers 3-star accommodation with 24-hour front desk and free WiFi. Alpexpo convention centre is 3 km away from the property. ",45.16819994,5.71199477,0,88
Grenoble,Residhome Grenoble Caserne De Bonne,7.7,"This 4-star Residhome is located in Grenoble, just a 10-minute walk from the city centre. It offers accommodation with free WiFi and views of the Vercors and Belledonne Mountains. ",45.18346987,5.72433829,0,88
Grenoble,Appartéa Grenoble Alpexpo,7.1,"Appartéa Grenoble Alpexpo is located 400 metres from the SAEM Alpexpo Exhibition Centre, opposite the Grand Place tram stop.  It offers studio and apartments with free internet access. ",45.15999038,5.73111087,0,88
Grenoble,Résidence Le Patricia,7.5,"Located in the centre of Grenoble, Résidence Le Patricia is 750 metres from Place Victor Hugo and 110 metres from the River Isère. It offers self-catering accommodation with free WiFi. ",45.1920997,5.72396229,0,88
Grenoble,RockyPop Grenoble Hotel,8.3,"RockyPop Grenoble Hotel has a restaurant, fitness centre, a bar and garden in Grenoble. This 4-star hotel offers a 24-hour front desk and luggage storage space. ",45.186911,5.731293,0,88
Grenoble,Le Hüb - Grenoble,8.2,"With WTC Grenoble reachable in 300 metres, Le Hüb - Grenoble provides accommodation, a restaurant, a bar, a shared lounge and a garden. ",45.192873,5.711917,0,88
Grenoble,Novotel Grenoble Centre,7.5,"The Novotel is set at the heart of Grenoble's business district, only a few steps from the TGV train station. A tram stop is conveniently situated just outside the hotel. ",45.190695,5.71259558,0,88
Grenoble,Hôtel de l'Europe Grenoble hyper-centre,8.2,Hôtel de l'Europe Grenoble hyper-centre is located in the heart of Grenoble and is the oldest hotel in the city. It is set in a 17th-century building. Free WiFi is provided. ,45.19035711,5.72733097,0,88
Grenoble,Le Grand Hôtel Grenoble,8.3,"The 4-star Le Grand Hôtel is located in the Grenoble City Centre, 10 metres from Place Grenette. The guest rooms are soundproofed, air-conditioned and some offer a balcony. ",45.19081504,5.72854802,0,88
Grenoble,Séjours & Affaires Grenoble Marie Curie,7.6,This residence is a 5-minute walk from Grenoble Train Station and less than 100 metres from Cité Internationale Tram Stop. ,45.19439642,5.71059331,0,88
Grenoble,Hôtel d’Angleterre Grenoble Hyper-Centre,7.6,"Hôtel d’Angleterre Grenoble Hyper-Centre is set in the heart of Grenoble, opposite the gardens of Place Victor Hugo. ",45.18920402,5.72537228,0,88
Colmar,Les Appartements de Home Petite Venise,8.1,Managed by a private host,48.07406195,7.35946119,0,88
Grenoble,"Sweet Loft Grenoble, Bed & Spa",8.0,Managed by a private host,45.1867729,5.7322614,0,88
Colmar,L'OCTAVE Colmar apartment 1 bedroom & living-room,6.8,"L'OCTAVE Colmar apartment 1 bedroom & living-room in Colmar offers accommodation with free WiFi, 800 metres from Saint-Martin Collegiate Church, less than 1 km from House of the Heads and 1.9 km from...",48.0791226,7.3656016,0,88
Colmar,Appartement grand standing VAUBAN 10 Personnes centre historique de Colmar,8.8,"Set in Colmar, 500 metres from Saint-Martin Collegiate Church, Appartement grand standing VAUBAN 10 Personnes centre historique de Colmar offers accommodation with a shared lounge, free WiFi and a...",48.07858813,7.3621622,0,88
Colmar,Ibis Colmar Est - Hotel Restaurant en Alsace,7.4,"The ibis Colmar East is located 5 km from the Alsace Wine Trail and 10 km from Kaysersberg, Riquewihr and Eguisheim. Wi-Fi is free of charge in the entire property. ",48.07790332,7.40279764,0,88
Colmar,Le 8 de Coeur - 3 Chambres dont 2 climatisees - Garage gratuit,9.0,Managed by a private host,48.0774007,7.3610058,0,88
Colmar,Hotel Saint-Martin,8.2,"Located in the heart of Colmar’s Old Town, close to the Petite Venise district and the famous Rue des Marchands, Saint-Martin offers rooms decorated in traditional Alsatian style. ",48.07641681,7.35935189,0,88
Grenoble,Esprit Bistrot / Rent4night Grenoble,7.9,Managed by a private host,45.18543211,5.74399642,0,88
Colmar,MyAlsace,8.8,Managed by a private host,48.079187,7.3624886,0,88
Colmar,"""appartement au centre & parking"" Logement Petite Venise",8.9,Managed by a private host,48.0736642,7.357762,0,88
Colmar,Le rohan sawadee,9.5,Managed by a private host,48.07755989,7.35481474,0,88
Colmar,Hotel L'Europe,8.1,"Located in the Alsace region, Hotel L’Europe is just 4 kilometres from Colmar town centre. Hotel L'Europe offers air-conditioned rooms with free Wi-Fi and a flat-screen TV with international channels....",48.07720622,7.40387186,0,88
Colmar,Comfort Hotel Expo Colmar,8.6,"Comfort Hotel Expo Colmar is 4 km from the centre of Colmar and 2 km from the A35 motorway. This hotel offers a 24-hour front desk, a terrace and free WiFi access. ",48.09965719,7.3624015,0,88
Colmar,Odalys City Colmar La Rose d'Argent,7.8,"Located in Colmar, just 1.6 km from the train station, Odalys City Colmar La Rose d'Argent offers a fitness room and swimming pool with counter-current and massage jets. ",48.07891558,7.36514839,0,88
Colmar,"Appartement avec terrasse ""MUSSLIN""",9.6,"In the Old Town district of Colmar, close to House of the Heads, Appartement avec terrasse ""MUSSLIN"" features barbecue facilities, free WiFi and a washing machine. ",48.07847974,7.35522133,0,88
Colmar,Gîte Saint Josse 3 chambres,7.2,Managed by a private host,48.0749441,7.3646899,0,88
Colmar,La Chambre de Bartholdi,8.3,"Boasting a shared lounge, La Chambre de Bartholdi offers accommodation in Colmar with free WiFi and city views. The property is 4 km from Colmar Expo and 28 km from Le Haut Koenigsbourg Castle. ",48.07365645,7.35590635,0,88
Colmar,Résidence Pierre & Vacances La Petite Venise,8.2,"Located in the heart of Colmar in the Little Venice district, Pierre & Vacances La Petite Venise offers an indoor swimming pool with paddling pool and garden with play area. ",48.07093986,7.35386556,0,88
Colmar,Hôtel Roi Soleil Colmar,7.8,"This hotel is located in the North of Colmar, 5 km from the city centre. It offers air conditioning, free WiFi access and an all-you-can-eat buffet breakfast. ",48.112478,7.36766875,0,88
Colmar,"SERENITY Colmar - Gîtes de Prestige 4 et 5 étoiles - 2, 4 et 6 personnes- Centre Historique",9.6,"Set in Colmar, near Saint-Martin Collegiate Church, House of the Heads and Colmar Train Station, SERENITY Colmar - Gîtes de Prestige 4 et 5 étoiles - 2, 4 et 6 personnes- Centre Historique features...",48.07774414,7.36180786,0,88
Colmar,At home in the center of Colmar,9.2,Managed by a private host,48.079187,7.362489,0,88
Colmar,Ibis Budget Colmar Centre Gare,7.0,"Ibis budget Colmar Centre Ville is set in the Colmar Centre Ville district in Colmar, 300 metres from House of the Heads and 600 metres from Saint-Martin Collegiate Church. ",48.07969759,7.35236159,0,88
Colmar,Colmar Hotel,9.0,"Colmar Hotel is located in Colmar, 1 km from House of the Heads. Colmar Christmas Market - Place des Dominicains is 1.2 km away. ",48.07080074,7.34638973,0,88
Colmar,Colmar - Le Nichoir - Centre historique - Wifi,8.5,Managed by a private host,48.0754142,7.3587035,0,88
Colmar,Suites Residences Spa,8.4,"Set 200 metres from House of the Heads, Suites Residences Spa offers accommodation with free bikes, a spa and wellness centre and a 24-hour front desk for your convenience. Free WiFi is featured. ",48.07900192,7.35450824,0,88
Colmar,COLMARAPPART Grand'Rue,8.5,"Located in the heart of Colmar, ideally situated between Colmar Cathedral and the main streets, COLMARAPPART Grand'Rue offers self-catering apartments and suites. ",48.07641026,7.35954888,0,88
Eguisheim,L'Hostellerie du Château,9.0,"Set at the heart of the medieval village of Eguisheim, the Hostellerie du Château is located on the Alsace wine route. It offers individually decorated guest rooms with free fibre-optic WiFi access. ",48.04242043,7.30631925,0,89
Eguisheim,Auberge des Trois Châteaux,8.7,"Auberge des Trois Châteaux is in the heart of Eguisheim, surrounded by vineyards of Alsace along the Alsatian wine route. Its traditional Winstub serves local, traditional specialties and local wines....",48.0430391,7.30580762,0,89
Colmar,ColmarAppart Vauban,8.5,"Set in Colmar, ColmarAppart Vauban is 300 metres from Saint-Martin Collegiate Church. House of the Heads is 500 metres away. Free WiFi is featured . ",48.0785657,7.36147009,0,88
Eguisheim,La Grange de Madeleine,9.8,"Offering city views, La Grange de Madeleine is an accommodation located in Eguisheim, 6.9 km from House of the Heads and 7.4 km from Saint-Martin Collegiate Church. ",48.0417829,7.3065467,0,89
Eguisheim,Gîte l'Aubaine,8.9,Managed by a private host,48.0437022,7.30599767,0,89
Eguisheim,Au pied des remparts à Eguisheim,9.0,"Situated in Eguisheim, 5.8 km from Colmar Train Station and 6.6 km from House of the Heads, Au pied des remparts à Eguisheim provides accommodation with amenities such as free WiFi and a flat-screen...",48.043006,7.3043162,0,89
Eguisheim,Gîte Le Hissala,8.6,Managed by a private host,48.04340695,7.30760872,0,89
Eguisheim,Gite Le Petit Malsbach Eguisheim,9.3,Managed by a private host,48.04224054,7.3127051,0,89
Eguisheim,La Maison du Rempart,9.4,Managed by a private host,48.04172203,7.3056037,0,89
Eguisheim,Résidence Vénus,8.9,Managed by a private host,48.04363894,7.30606377,0,89
Eguisheim,"Le Victoria, Eguisheim, 4-6 p., 4etoiles, rénové,clim",9.4,Managed by a private host,48.0425427,7.3074499,0,89
Eguisheim,La Légende des 2 Pierres,9.1,"Located in the quaint village of Eguisheim, La Légende des 2 Pierres offers a self-catering apartment with mountain views. Ski storage is provided in the apartment. ",48.04299853,7.30448939,0,89
Eguisheim,Gite Edelweiss à Eguisheim,9.4,"Gite Edelweiss à Eguisheim in Eguisheim features accommodation with free WiFi, 5.8 km from Colmar Train Station, 6.6 km from House of the Heads and 7.1 km from Saint-Martin Collegiate Church. ",48.04323544,7.30522192,0,89
Eguisheim,Elsass Design Hygge,9.4,Managed by a private host,48.04203,7.304598,0,89
Eguisheim,Les chambres du domaine,9.3,Managed by a private host,48.042963,7.307216,0,89
Eguisheim,Auberge du Rempart,8.6,"Offering views of the city, Auberge du Rempart is a family-run inn situated in the historic centre of Eguisheim in the Alsace Region.The property is 100 metres from Eguisheim Christmas Market. ",48.04215781,7.30737026,0,89
Eguisheim,Guesthouse Les 3 Chateaux,8.6,Managed by a private host,48.0433578,7.3075508,0,89
Eguisheim,Hôtel L'Auberge Alsacienne,8.5,"Located in the village of Eguisheim in the Alsace region, this hotel features modern rooms with private bathroom and a traditional restaurant. Free WiFi is available in the entire hotel. ",48.04223841,7.30916776,0,89
Eguisheim,Le Hameau d'Eguisheim - Chambres d'hôtes & Gîtes,8.9,"Set in a typical Alsatian timbered house, Le Hameau d’Eguisheim offers B&B and self-catering accommodation on an estate with a vineyard. ",48.04252897,7.30712727,0,89
Eguisheim,notre maison à Eguisheim,8.9,Managed by a private host,48.041599,7.306161,0,89
Eguisheim,Brit Hotel Confort La Ferme du Pape,7.7,"Brit Hotel Confort La Ferme du Pape is located at the gate of a charming village, in the heart of vineyards and a gourmet region. The hotel is situated 8 km from Colmar. ",48.04228862,7.3094514,0,89
Eguisheim,Résidence Pierre & Vacances Le Clos d'Eguisheim,8.0,"Résidence Pierre & Vacances Le Clos D'Eguisheim is located 700 metres from Eguisheim village centre, in the Alsace region along the Alsace Wine Route. ",48.04502734,7.31185466,0,89
Eguisheim,Fleur de Vigne,9.7,Managed by a private host,48.0461134,7.3051632,0,89
Eguisheim,Appartement Le Ch'ti Alsacien,9.1,"Offering free WiFi and city views, Appartement Le Ch'ti Alsacien is an accommodation situated in Eguisheim. The property is 7 km from Saint-Martin Collegiate Church and 10 km from Colmar Expo. ",48.0425764,7.3052388,0,89
Eguisheim,Hotel Colmar Vignes Eguisheim,8.8,"This hotel is located 200 metres from the city centre of Eguisheim, a 10-minute drive from Colmar. It offers free Wi-Fi internet access and free private parking. ",48.04327133,7.30412185,0,89
Eguisheim,James Vignoble Hôtel - Eguisheim,8.6,James Vignoble Hôtel - Eguisheim is located among the vineyards of Eguisheim. It offers a spectacular view of the Black Forest. ,48.04496277,7.30157845,0,89
Chateau du Haut Koenigsbourg,Hôtel du Haut Koenigsbourg - calme et nature,9.0,"This hotel de charme offers en suite accommodation within the Ballons des Vosges Regional Park. It is situated in the scenic village of Thannenkirch, in the Alsace region. ",48.23164092,7.30222034,-3,90
Chateau du Haut Koenigsbourg,La Maison de Vacances de Colmar et son jardin,8.6,Managed by a private host,48.07057919,7.3682287,-3,90
Chateau du Haut Koenigsbourg,"Hôtel Restaurant Le Verger des Châteaux, The Originals Relais",7.9,"Hôtel Restaurant Le Verger des Châteaux, The Originals Relais is situated on the wine route, in the heart of Alsace. ",48.30655512,7.41947293,-3,90
Chateau du Haut Koenigsbourg,Gîte Binnert Bader,9.2,"Located in the Bas-Rhin, a wine producing region, Gîte Binnert Bader offers a terrace and soundproofed rooms. This holiday home is 15 km from Sélestat Train Station. ",48.35583553,7.42061555,-3,90
Chateau du Haut Koenigsbourg,"SERENITY Colmar - Gîtes de Prestige 4 et 5 étoiles - 2, 4 et 6 personnes- Centre Historique",9.6,"Set in Colmar, near Saint-Martin Collegiate Church, House of the Heads and Colmar Train Station, SERENITY Colmar - Gîtes de Prestige 4 et 5 étoiles - 2, 4 et 6 personnes- Centre Historique features...",48.07774414,7.36180786,-3,90
Chateau du Haut Koenigsbourg,Gîtes individuels à Kaysersberg,8.6,Managed by a private host,48.14958963,7.24729123,-3,90
Chateau du Haut Koenigsbourg,Villa Maeva - Logements,9.4,Managed by a private host,48.166004,7.300942,-3,90
Chateau du Haut Koenigsbourg,Alexain Hotel Restaurant & Wellness - Colmar Ouest,7.4,"Located in Trois-Épis, Alexain Hotel Restaurant & Wellness - Colmar Ouest Restaurant & Wellness is on the Alsace wine route and offers panoramic views of Colmar, the Vosges and the Alsace Plain. ",48.09958419,7.23472774,-3,90
Chateau du Haut Koenigsbourg,LUCKY PLACE - PARKING - CENTRE - BALCON,8.8,"LUCKY PLACE - PARKING - CENTRE - BALCON, a property with a terrace, is located in Colmar, 600 metres from House of the Heads, less than 1 km from Saint-Martin Collegiate Church, as well as a 17-minute...",48.0819572,7.3535124,-3,90
Chateau du Haut Koenigsbourg,La Maison de Vacances,9.5,Managed by a private host,48.35602535,7.41966145,-3,90
Chateau du Haut Koenigsbourg,Sohana Lifestyle Apartments I Leilani's & Saskia's Home I Rust,9.2,"Sohana Lifestyle Apartments I Leilani's & Saskia's Home I Rust has garden views, free WiFi and free private parking. It is situated in Rust, within a 15-minute walk of the Europa Park and water park. ",48.2622525,7.7270746,-3,90
Chateau du Haut Koenigsbourg,Laterale Residences Apartments Riquewihr,9.3,"Situated in Riquewihr in the Alsace Region, Laterale Residences Apartments Riquewihr is 200 metres from Riquewihr Christmas Market. Free WiFi is provided . ",48.16652177,7.29689996,-3,90
Chateau du Haut Koenigsbourg,Boutique Appartement @Park,9.3,Managed by a private host,48.2231106,7.7100911,-3,90
Chateau du Haut Koenigsbourg,At home in the center of Colmar,9.2,Managed by a private host,48.079187,7.362489,-3,90
Chateau du Haut Koenigsbourg,La Chambre de Bartholdi,8.3,"Boasting a shared lounge, La Chambre de Bartholdi offers accommodation in Colmar with free WiFi and city views. The property is 4 km from Colmar Expo and 28 km from Le Haut Koenigsbourg Castle. ",48.07365645,7.35590635,-3,90
Chateau du Haut Koenigsbourg,ColmarAppart Vauban,8.5,"Set in Colmar, ColmarAppart Vauban is 300 metres from Saint-Martin Collegiate Church. House of the Heads is 500 metres away. Free WiFi is featured . ",48.0785657,7.36147009,-3,90
Chateau du Haut Koenigsbourg,COLMARAPPART Grand'Rue,8.5,"Located in the heart of Colmar, ideally situated between Colmar Cathedral and the main streets, COLMARAPPART Grand'Rue offers self-catering apartments and suites. ",48.07641026,7.35954888,-3,90
Chateau du Haut Koenigsbourg,La Maison 1603,9.4,Managed by a private host,48.1800349,7.30920452,-3,90
Chateau du Haut Koenigsbourg,Le Manhattan Spa privatif - LE CLÔT COUVERT,9.4,Managed by a private host,48.11635191,7.54119427,-3,90
Chateau du Haut Koenigsbourg,Sollaris Appartements 3P 1ère étage à 11km d'Europa-Park,9.6,Managed by a private host,48.30926851,7.67154876,-3,90
Chateau du Haut Koenigsbourg,Le Clos bartholdi,8.5,"Offering city views, a shared lounge and free WiFi, Le Clos bartholdi offers accommodation in a prime location in Colmar, within a short distance of House of the Heads, Colmar Train Station and...",48.073668,7.355898,-3,90
Chateau du Haut Koenigsbourg,Suites Residences Spa,8.4,"Set 200 metres from House of the Heads, Suites Residences Spa offers accommodation with free bikes, a spa and wellness centre and a 24-hour front desk for your convenience. Free WiFi is featured. ",48.07900192,7.35450824,-3,90
Mont Saint Michel,Maison au pied du Mont Saint Michel,9.0,"Boasting garden views, Maison au pied du Mont Saint Michel offers accommodation with a terrace and a kettle, around 21 km from Scriptorial d'Avranches, musee des manuscrits du Mont Saint-Michel. ",48.61267358,-1.48553065,4,85
Mont Saint Michel,Au Mont Chez Nous Jaccuzi et Sauna,9.2,Managed by a private host,48.6134553,-1.4858723,4,85
Mont Saint Michel,Gites Bellevue,9.3,Managed by a private host,48.60788007,-1.51722372,4,85
Mont Saint Michel,Mon Saint Michel,8.8,"Set 8.6 km from Mont Saint Michel Abbey, Mon Saint Michel offers accommodation with free bikes, a garden and a 24-hour front desk for your convenience. ",48.613627,-1.485791,4,85
Mont Saint Michel,Chambres d'Hôtes Les Vieilles Digues,9.3,"Set in a renovated Breton-style house, this family-run B&B is located in Beauvoir, 3 km from Mont-Saint-Michel. ",48.6041875,-1.51159912,4,85
Mont Saint Michel,Vent des Grèves,9.2,"Vent des Grèves features garden views, free WiFi and free private parking, set in Pontorson, 8.1 km from Mont Saint Michel Abbey. ",48.615403,-1.49144,4,85
Mont Saint Michel,Les 2 Clos,8.8,"Featuring free bikes, Les 2 Clos features accommodation in Ardevon. All of the holiday homes feature a private bathroom, flat-screen TV, fully-equipped kitchen and terrace. ",48.6139661,-1.48579173,4,85
Mont Saint Michel,La Jacotière,9.3,"Situated in Ardevon, La Jacotière is a B&B set in a renovated farm with a garden and a furnished terrace offering views of the Mont Saint-Michel, just 3 km away. Free Wi-Fi is provided. ",48.61411436,-1.50431424,4,85
Mont Saint Michel,Etoile des Grèves,9.3,"Situated in Ardevon in the Lower Normandy region, Etoile des Grèves features accommodation with free WiFi and free private parking. ",48.615509,-1.491524,4,85
Mont Saint Michel,Auberge de la Baie,7.8,This hotel is situated in the countryside of Normandy and offers free Wi-Fi Flat-screen TVs with satellite channels are provided in all of the modern guest rooms at Auberge de la Baie. ,48.61599318,-1.48825318,4,85
Mont Saint Michel,L'Hirondelle,8.9,Managed by a private host,48.615795,-1.488712,4,85
Mont Saint Michel,Hôtel la Croix Blanche,7.6,"Situated in the heart of Mont Saint Michel medieval Village, Hôtel La Croix Blanche offers a terrace and a bar. The rooms at Hôtel La Croix Blanche have a flat-screen, satellite TV and a minibar. ",48.63573406,-1.50986105,4,85
Mont Saint Michel,Le Relais Du Roy,7.9,"Le Relais Du Roy is a 3-star hotel situated next to the River Couesnon, just 1.5 km from the Mont Saint-Michel and 50 metres from the free shuttle bus. ",48.6162627,-1.51090577,4,85
Mont Saint Michel,Le Saint Aubert,7.0,"Set amid lush greenery, just 2 km from the Mont Saint-Michel, the hotel welcomes you in a warm and friendly atmosphere. ",48.61293783,-1.51010513,4,85
Mont Saint Michel,Hotel Gabriel,7.9,Hotel Gabriel is located 1.6 Km from Mont Saint-Michel. It offers free Wi-Fi access and en suite rooms just a 25-minute walk from the walls of the old city. ,48.61538141,-1.51070997,4,85
Mont Saint Michel,Auberge Saint Pierre,7.9,Auberge Saint Pierre is a 14th-century half-timbered house located on Mont St Michel tidal island. It combines the period charm of exposed beams with modern comforts including TV and free Wi-Fi...,48.63568798,-1.50988251,4,85
Mont Saint Michel,Hôtel Vert,8.0,"Hotel Vert offers pastel-coloured rooms with a private bathroom, TV and free Wi-Fi access. It is located 2 km from the Mont Saint-Michel tidal island on the Normandy Coast. ",48.61470049,-1.50961697,4,85
Mont Saint Michel,Le Mouton Blanc,7.0,"At the foot of the abbey, the Mouton Blanc Hotel, welcomes you in its historic 14th century location. Le Mouton Blanc provides comfortable rooms with a simple yet cosy decoration. ",48.63602298,-1.50989592,4,85
Mont Saint Michel,Les Terrasses Poulard,7.3,"Composed of 2 different buildings, Les Terrasses Poulard is a historical property in the heart of Mont Saint-Michel and offers views of the bay, the village and the street. ",48.63534943,-1.51037872,4,85
Mont Saint Michel,Hotel De La Digue,7.1,"The traditional Hotel De La Digue in the Basse-Normandie region is only 5 minutes by shuttle from Mont St Michel, or 30 minutes by foot. Free Wi-Fi is provided throughout the property. ",48.61688155,-1.51091784,4,85
Mont Saint Michel,La Vieille Auberge,7.1,"La Vieille Auberge is located in the medieval village of Le Mont Saint Michel, just a short walk from the famous Mont Saint-Michel Abbey. ",48.636063,-1.511457,4,85
Mont Saint Michel,Le Relais Saint Michel,7.8,Le Relais Saint Michel is an hotel facing the bay of Mont Saint-Michel. ,48.61758727,-1.51039615,4,85
Mont Saint Michel,Mercure Mont Saint Michel,8.2,"This Mercure is situated in parkland just 2 km from the abbey of Mont Saint Michel. It offers spacious en suite rooms, a restaurant and bar and plenty of free on-site parking. ",48.61424653,-1.51054502,4,85
Paris,Apollon Montparnasse,8.0,"Apollon Montparnasse is located in Paris, 500 metres from Montparnasse Train Station. Each room at this hotel is air conditioned and has a flat-screen TV with satellite channels. ",48.8347294,2.3170084,3,80
Paris,Aparthotel Adagio Porte de Versailles,7.6,"Opposite Porte de Versailles exhibition centre, this 4-star eco-friendly residence offers a 24-hour reception and is only 3 km from the Parc des Princes Stadium. ",48.8310834,2.28104442,3,80
Mont Saint Michel,La Mère Poulard,7.0,"Housed in a historical building, this hotel is ideally located in the heart of Mont Saint-Michel. The classic-style rooms overlook the bay, the abbey or the medieval city. ",48.63508532,-1.51053965,4,85
Amiens,APPART COSY TOUT CONFORT CENTRE VILLE 4 PERSONNES WiFi,8.7,Managed by a private host,49.8888934,2.2883795,2,87
Paris,Hotel d'Amiens,8.0,"Hotel d'Amiens is located in Paris between Gare du Nord and Gare de l’Est Train Stations. It offers rooms with a bath or a shower, satellite TV and free WiFi. ",48.87839189,2.35731974,3,80
Paris,Aparthotel Adagio Paris XV,6.7,Aparthotel Adagio Paris XV is located in Paris’ 15th arrondissement opposite the Porte de Versailles Exhibition Centre and 3 km from the Parc des Princes Stadium. ,48.83130941,2.28234261,3,80
Amiens,Le toit des Fédérés,8.0,Managed by a private host,49.8965252,2.2825902,2,87
Amiens,"Charmant T2 Hyper-centre, Netflix, Gare",8.9,"Situated in Amiens, 3.3 km from Zénith d'Amiens, Charmant T2 Hyper-centre, Netflix, Gare features a living room with a TV. ",49.89013675,2.29853201,2,87
Amiens,La Parenthèse Envoutée,8.9,"Situated in Amiens in the Picardy region with Amiens Train Station and The Floating gardens Park nearby, La Parenthèse Envoutée features accommodation with free WiFi, as well as access to a hot tub. ",49.8883391,2.31217084,2,87
Paris,"Holiday Inn Express Paris-Canal De La Villette, an IHG Hotel",8.1,The Holiday Inn Express Paris-Canal De La Villette is located on the banks of the Canal de l'Ourcq and the Bassin de la Villette in Paris. ,48.88843586,2.37839654,3,80
Paris,"Holiday Inn Paris Gare de l'Est, an IHG Hotel",7.7,"This Holiday Inn Paris Gare de l'Est hotel is located opposite Gare de l’Est Train and Metro Station, which provides direct access to attractions such as Saint-Michel and the Latin Quarter. ",48.87597385,2.35900484,3,80
Paris,Citadines Saint-Germain-des-Prés Paris,8.1,"Located in the centre of Paris, Citadines Saint-Germain-des-Prés Paris is a 10-minute walk from Notre-Dame Cathedral and 300 metres from Saint-Michel Metro Station. ",48.85492633,2.34115541,3,80
Paris,Hotel de L'Esperance,8.5,"Located a 2-minute walk from the lively rue Mouffetard in Paris, Hotel de L'Esperance offers an inner courtyard. Place Monge and the Latin district are a 10-minute's walk away. ",48.8381576,2.3496155,3,80
Paris,Hôtel Gérando,8.2,"Hotel Gérando is located in the Montmartre area in Paris. The hotel features a 24-hour reception, a luggage storage and free WiFi. ",48.88253133,2.34581105,3,80
Paris,HotelHome Paris 16,8.4,"HotelHome Paris 16 is located in Paris’s 16th arrondissement, 1.5 km from The Bois de Boulogne. It offers air-conditioned, self-catering apartments with free Wi-Fi internet access. ",48.85057501,2.26743221,3,80
Paris,Odalys City Paris XVII,7.6,"Located in the 17th arrondissement of Paris, Odalys City Paris XVII is 20-minutes from the city centre via public transport and a 30-minute metro ride from the Champs-Élysées. ",48.8997159,2.3215052,3,80
Paris,Hôtel Aiglon,8.7,"Located in the heart of the Montparnasse district, this design hotel is just 30 metres from the Raspail Metro stop. Guest rooms are modern and stylish with free Wi-Fi access. ",48.83971177,2.33017266,3,80
Paris,Hotel Aix Europe,7.0,"Featuring free WiFi throughout the property, Hotel Aix Europe offers accommodation in Paris, 500 metres from Place de la République. ",48.87011137,2.36992787,3,80
Paris,Grand Hôtel Amelot,8.1,"Located in the 11th district of Paris, a 5-minute walk from the Marais district and Place des Vosges Park, Grand Hôtel Amelot offers a 24-hour reception, concierge service and luggage storage. ",48.8592568,2.3684085,3,80
Paris,LivinParis - Luxury 3 Bedrooms Le Louvre I,8.0,"Set in the centre of Paris, just 500 metres from Opéra Garnier and 1.3 km from Louvre Museum, LivinParis - Luxury 3 Bedrooms Le Louvre I offers accommodation with city views and free WiFi. ",48.86989456,2.3345604,3,80
Paris,Austin's Saint Lazare Hotel,8.0,"This Austin's hotel is located in central Paris, next to Saint-Lazare Train Station and 800 metres from Opéra Garnier. ",48.87693501,2.32698441,3,80
Paris,Charming studio 2P - Voltaire Nation,,"Set in Paris, 1.4 km from Opéra Bastille and 1.9 km from Paris-Gare-de-Lyon, Charming studio 2P - Voltaire Nation provides accommodation with amenities such as free WiFi and a TV. ",48.8545305,2.3859817,3,80
Paris,Hotel Lutetia,9.0,Hotel Lutetia is an iconic luxury hotel situated in the Saint-Germain-des-Prés area. ,48.851244,2.327238,3,80
Paris,Hôtel Rosalie,8.6,"Located in the Gobelins district, recent renovated in 2022 design hotel features a duplex terrace and private shaded rooftop terrace for their guests enjoyment. ",48.83207392,2.35368535,3,80
Paris,Hotel Eden,8.6,"Hotel Eden is located in Paris’ 15th arrondissement, just 270 metres from Vaugirard Metro Station and 2 km from the Montparnasse Tower. ",48.84051019,2.29917414,3,80
Paris,Hôtel Korner Etoile,8.3,"Located 1.5 km from the Palais des Congrès, this hotel offers soundproofed and air-conditioned rooms with free Wi-Fi. ",48.88531807,2.2933808,3,80
Paris,Hotel Elysees Opera,8.3,"Located in the chic 8th district in Paris, this hotel offers modern guest rooms with a balcony. It has a 24-hour reception with a tour desk and ticket service. ",48.88141526,2.32455321,3,80
Amiens,Au Spatial,7.4,"Au Spatial is located in the heart of Amiens, a 2-minute walk from Amiens Train Station and a 6-minute walk from Amiens Cathedral. It offers free WiFi access. ",49.89193885,2.30575562,2,87
Amiens,Gite Amiens,8.4,Managed by a private host,49.90235783,2.31428465,2,87
Paris,MEININGER Hotel Paris Porte de Vincennes,7.9,"Featuring a bar and a shared lounge, MEININGER Hotel Paris Porte de Vincennes is located in Paris, 4.1 km from Opéra Bastille and 5.4 km from Paris-Gare-de-Lyon. ",48.844105,2.413063,3,80
Amiens,Hotel Central Anzac,7.4,"Centrally located, Hotel Central Anzac is a 2-minute walk from the train station and a 7-minute walk from Amiens Cathedral. It offers modern accommodation and a continental breakfast. ",49.89183258,2.30599433,2,87
Paris,Manolita Paris,9.8,"Situated in Paris, 500 metres from Pigalle Metro Station, Manolita Paris features a bar and views of the city. This 5-star hotel offers a concierge service and luggage storage space. ",48.88399245,2.33272308,3,80
Amiens,Comme une parenthèse au coeur des hortillonnages,9.1,Managed by a private host,49.888542,2.331349,2,87
Amiens,GRANDE MAISON AMIÉNOISE TOUTE ÉQUIPÉE 8PERS WIFI,7.2,Managed by a private host,49.88492,2.3261471,2,87
Amiens,DOWNTOWN COCOON - CENTRE VILLE - WiFi - NETFLIX,9.4,Managed by a private host,49.89225955,2.29466287,2,87
Amiens,Superbe appartement-Sauna-Cinéma-Parking-Gare,7.6,"Offering free WiFi and free private parking, Superbe appartement-Sauna-Cinéma-Parking-Gare is located in Amiens, within just 700 metres of Amiens Train Station. ",49.8942034,2.3068382,2,87
Amiens,Maison Longuevie,9.5,Managed by a private host,49.887694,2.294524,2,87
Amiens,L'Oratoire,7.7,Managed by a private host,49.8930114,2.3058662,2,87
Amiens,Hotel Le Prieuré et La Résidence,8.3,"Located in Amiens city centre, Hotel Le Prieuré et la Résidence are at the foot of the Amiens Cathedral. It offers free Wi-Fi internet access and individually-decorated rooms with antique furnishings....",49.89444519,2.30094239,2,87
Amiens,15ème droite - Tour Perret - Centre-Ville - 4 étoiles,9.8,"Offering free WiFi and city views, 15ème droite - Tour Perret - Centre-Ville - 4 étoiles is an accommodation located in Amiens, just 200 metres from Amiens Train Station and less than 1 km from The...",49.891036,2.306244,2,87
Amiens,Cinéma T3 Disney+ Balcon Hyper-centre,8.4,"Located in Amiens, 1.4 km from Amiens Train Station, 2.4 km from Zénith d'Amiens and less than 1 km from Berny's Museum, Cinéma T3 Disney+ Balcon Hyper-centre provides accommodation with a balcony and...",49.8929989,2.2928398,2,87
Amiens,Les Augustins,7.9,"Situated in Amiens, near Amiens Train Station, The Floating gardens Park and Berny's Museum, Les Augustins features free WiFi. ",49.894229,2.305778,2,87
Amiens,Odalys City Amiens Blamont,7.9,"Set within 2.8 km of Zénith d'Amiens and 900 metres of Berny's Museum in Amiens, Odalys City Amiens Blamont offers accommodation with free WiFi. ",49.88714842,2.3116109,2,87
Amiens,LES PERLES AMIENOISES✩BLACK PEARL☆HYPER CENTRE☆,9.2,"Situated 3.8 km from Zénith d'Amiens, 800 metres from The Floating gardens Park and 400 metres from Berny's Museum, LES PERLES AMIENOISES✩BLACK PEARL☆HYPER CENTRE☆ features accommodation set in...",49.8925625,2.3052844,2,87
Amiens,GRANDE MAISON COSY TERRASSE PARKING GARE 8PERS,9.5,Managed by a private host,49.8925731,2.3118048,2,87
Amiens,L'amiénoise proche zenith stade cathédrale,9.1,Managed by a private host,49.8875926,2.281197,2,87
Amiens,L’ÉMERAUDE AMIENS,9.7,Managed by a private host,49.87000632,2.30806847,2,87
Amiens,"Holiday Inn Express Amiens, an IHG Hotel",7.9,Holiday Inn Express was renovated in April 2015 and offers comfortable guest rooms with free WiFi. ,49.8916762,2.30775386,2,87
St Malo,La Rotonde,7.5,"This hotel is located in the seaside resort of Saint-Malo, 50 metres from the beach. Free Wi-Fi access and a TV are provided in the non-smoking guest rooms. ",48.6625133,-1.98893577,5,80
St Malo,Résidence La Hoguette,8.9,"Located in Saint Malo, Résidence La Hoguette offers self-catering studios and apartments. Just 30 metres from the beach, it has free WiFi throughout the property. ",48.65626455,-2.00260431,5,80
Amiens,Le Cottage des Hortillonnages,9.3,"Located in Amiens, 1.5 km from Amiens Train Station and 5.1 km from Zénith d'Amiens, Le Cottage des Hortillonnages provides accommodation with free WiFi, air conditioning, a garden and barbecue...",49.89755206,2.31635948,2,87
St Malo,La Conchee,9.5,Managed by a private host,48.67741279,-1.98646032,5,80
St Malo,Hôtel Bristol Union Intra Muros,8.5,"Hotel Bristol Union is located in the heart of Saint Malo, within the city walls of the old town and 180 metres from Saint-Malo Marina. ",48.649611,-2.02430338,5,80
Lille,Hotel Carlton,8.1,"Located in the heart of Lille, 5 minutes walk from the two train stations, Lille Europe and Lille Flandres, the Carlton Hotel offers a breathtaking view of the Opera and the Belfry. ",50.63671804,3.06532234,2,84
Lille,Lille A Part - Gites Urbains,8.2,"Located in the heart of Lille Old Town, this property offers 2 apartments located just a 10-minute walk from Lille Flandres Train Station, 2 km from Lille Grand Palais and 1.1 km from Nouveau Siècle...",50.64342775,3.06085646,2,84
Lille,Novotel Lille Centre Gares,8.0,"Located only 300 metres from Lille Flandres train station, this 4-star hotel is a 5-minute walk from central Lille, the Palais des Congrès and the Zénith. ",50.63444099,3.07335824,2,84
St Malo,Hôtel de la Cité,7.5,"The Hôtel de la Cité is located in the heart of Saint-Malo, just 350 metres from Saint-Malo Marina. It offers free Wi-Fi internet access and rooms with sea views. ",48.65130149,-2.02511072,5,80
Lille,Atypical and cozy studio in Old Lille close to the station - Welkeys,8.1,"Atypical and cozy studio in Old Lille close to the station - Welkeys in Lille provides accommodation with free WiFi, 400 metres from Lille Opera, 400 metres from Grand Place Lille and less than 1 km...",50.6386997,3.0598978,2,84
St Malo,LE GEORGE V - Beau 2 chambres au coeur de St Servan,8.4,Managed by a private host,48.6373316,-2.0157318,5,80
St Malo,Hôtel La Porte Saint Pierre-Logis Hôtel Intra Muros,8.5,"Situated inside the historic walls of Saint-Malo’s old town, this hotel is just 10 metres from the beach. ",48.64785311,-2.0283857,5,80
St Malo,Hôtel Ar Iniz,8.5,"Providing a direct access to the Sillon Beach, Hôtel Ar Iniz offers a regional restaurant, a bar and a terrace with a view of the sea. The modern-style hotel is situated 1.5 km from the city centre. ",48.66167888,-1.99165016,5,80
St Malo,ibis Styles Saint Malo Port,7.7,"Offering a snack bar and free WiFi, ibis Styles Saint Malo Port is located in Saint Malo, less than a 10-minute walk from the sandy beaches and 1 km from Saint-Malo Train Station. ",48.63962614,-2.01236531,5,80
St Malo,L'AccrocheCoeur,9.3,"Set in Saint Malo, 200 metres from Bon Secours Beach, L'AccrocheCoeur features views of the city. ",48.648137,-2.027065,5,80
St Malo,Domaine de la Barbinais,8.1,"Set in a 7000 m², landscaped park, Domaine de la Barbinais is a hotel located in the countryside of Saint Malo.  WiFi access is available throughout. ",48.64481252,-1.95936144,5,80
St Malo,Grand Hôtel Des Thermes,8.1,"Set on the beachfront, this Belle Époque-style hotel features a spa and an indoor swimming pool. It offers refined guest rooms, some with a balcony and sea views. ",48.65783788,-1.99934542,5,80
St Malo,Résidence Néméa Le Domaine des Mauriers,7.5,Résidence Nemea Le Domaine des Mauriers offers self-catering accommodation located a 10-minute drive from the centre of Saint-Malo. ,48.62802437,-1.97798415,5,80
St Malo,Hôtel Le Nouveau Monde,8.8,This beachfront hotel is just a 5-minute walk to the historic centre of Saint-Malo and 950 metres from Saint-Malo Marina. ,48.65342427,-2.01143146,5,80
St Malo,Hôtel Le Nautilus,9.1,"Hôtel Le Nautilus is set in a renovated 17th-century building and is located in the walled city of Saint-Malo. This hotel offers a bar, luggage storage and a shared lounge. ",48.65072706,-2.02494547,5,80
St Malo,Oceania Saint Malo,8.4,"The Oceania Saint Malo hotel faces the sea and is located on Chaussée du Sillon, opposite Sillon Beach and 450 metres from Saint-Malo Marina. ",48.65175689,-2.01843202,5,80
St Malo,La Cordee by Cocoonr,9.0,"La Cordee by Cocoonr in Saint Malo features accommodation with free WiFi, 200 metres from Bon Secours Beach, 300 metres from Mole Beach and 700 metres from Eventail Beach. ",48.64795607,-2.02716374,5,80
St Malo,L'Etoile du Roy by Cocoonr,8.1,"Situated in Saint Malo and only 300 metres from Sillon Beach, L'Etoile du Roy by Cocoonr features accommodation with sea views, free WiFi and free private parking. ",48.651462,-2.018315,5,80
St Malo,Hotel Ajoncs d'Or,8.4,"Hotel Ajoncs d'Or is located in the heart of the historic fortified city walls of Saint Malo, 350 metres from Saint-Malo Marina. ",48.64735692,-2.02519655,5,80
St Malo,Hotel De L'univers,8.0,"Hotel De L'univers is located in the walled city of Saint Malo in Brittany, and is walking distance to the ferry port and train station. ",48.65104101,-2.0237267,5,80
St Malo,Residence Reine Marine,8.3,"Welcome to our new 4-star residence, completely dedicated to your comfort and well-being An exceptional location. A panoramic view of the islands and the bay of Saint-Malo. Direct access to the beach...",48.66913503,-1.98354185,5,80
St Malo,Hôtel de France et Chateaubriand,7.7,"The Hotel de France and Chateaubriand is located in the heart of the historic city of Saint Malo, 210 metres from Saint-Malo Marina. It offers breathtaking views over the sea and le sillon. ",48.6511934,-2.02379644,5,80
St Malo,Hôtel Cartier,7.4,"Situated within the fortified walls of Saint-Malo, the Hotel Cartier is just 280 metres from Saint-Malo Marina and 500 metres from the beach and the English channel. ",48.65001325,-2.02483177,5,80
Lille,Brueghel,7.9,"This hotel is located in the heart of Lille. It is 300 metres from Gare Lille Flandres, 750 metres from Gare de Lille Europe and 10 minutes from Nouveau Siecle Convention Centre by walk. ",50.63603842,3.06693703,2,84
Lille,Campanile Lille Euralille,8.1,"Located 1 km from Lille Europe, 2 km from Lille’s Grand’ Place and 260 metres from Romarin Tram Stop, Campanile Lille Euralille is a 24-hour-front-desk hotel which features a restaurant. ",50.6456983,3.07210967,2,84
Lille,Lille - Lovely and comfortable apartment!,8.0,"Lille - Lovely and comfortable apartment! in Lille offers accommodation with free WiFi, less than 1 km from Coilliot House, a 19-minute walk from Hospice Gantois and 2.3 km from Lille Grand Palais. ",50.621138,3.0590122,2,84
St Malo,La Maison des Armateurs,8.5,"Set in the historical centre of Saint-Malo, this 4-star hotel is just a 5-minute walk from the cathedral and 120 metres from Saint-Malo Marina. ",48.6492052,-2.02463329,5,80
Lille,Lille Centre - 2BR in the heart of Lille!,6.7,"Lille Centre - 2BR in the heart of Lille! in Lille offers accommodation with free WiFi, 400 metres from Printemps Gallery, 1 km from Hospice Gantois and 1.3 km from Zoo Lille. ",50.6361336,3.0596242,2,84
Lille,Paddy's Place,9.3,Managed by a private host,50.6364092,3.0615103,2,84
Lille,Hotel Kanaï,8.0,"Hotel Kanaï is located in the centre of Lille, in a pedestrianised area, only 200 metres from the famous Grand Place, a 15-minute walk from Lille Grand Palais and a 6-minute walk from Nouveau Siècle...",50.6347957,3.06413278,2,84
Lille,Brit Hotel Lille Centre,7.6,"Set near the Gambetta Métro station, in the city centre of Lille, this hotel-restaurant welcomes you 1 km from the Fine Arts Museum, 2 km from Lille Grand Palais and 300 metres from the Maison Folie...",50.62603955,3.05190325,2,84
Lille,Sparadise Lille,8.1,"Situated in Lille, 400 metres from Printemps Gallery and 800 metres from The Old Lille District, Sparadise Lille features city views and free WiFi. The accommodation has a spa bath. ",50.6363018,3.0608761,2,84
Lille,Lille Centre - Nice cozy and functional ap 80m2,7.3,"Lille Centre - Nice cozy and functional ap 80m2 in Lille features accommodation with free WiFi, 1.1 km from Printemps Gallery, 600 metres from Zoo Lille and 1.7 km from Hospice Gantois. ",50.637058,3.051736,2,84
Lille,OKKO Hotels Lille Centre,8.7,"OKKO Hotels Lille Centre has a restaurant, fitness centre, a bar and shared lounge in Lille. ",50.634074,3.064229,2,84
Lille,MAISON VIEUX LILLE 3 chambres parking privé gratuit 24H24H Accès,8.4,Managed by a private host,50.64106837,3.05505589,2,84
Lille,Old Lille - Beautiful house 3 bdrms 7pers,7.6,"In the Vieux Lille district of Lille, close to Lille Opera, Old Lille - Beautiful house 3 bdrms 7pers features free WiFi and a washing machine. ",50.641552,3.062729,2,84
Lille,ibis Styles Lille Centre Gare Beffroi,7.8,"The ibis Styles Lille Centre Gare Beffroi is located in the centre of Lille, 600 metres from Lille Flandres and Lille Europe train stations. ",50.63238245,3.06794286,2,84
Lille,Appart'City Confort Lille - Euralille,8.1,"This Appart'city is 10 km from Pierre Mauroy Stadium and 2 minutes by tramway from the centre of Euralille business district, Euralille shopping centre and Lille-Europe Train Station. ",50.6454875,3.07321072,2,84
Lille,Lille Grand Place - cozy and equipped studio!,8.1,"Situated in Lille, Lille Grand Place - cozy and equipped studio! features city views and free WiFi, 400 metres from Grand Place Lille and 400 metres from Lille Opera. ",50.6349198,3.0671957,2,84
Lille,Séjours & Affaires Lille Europe,7.1,"This residence is located in the city centre of Lille, in the heart of the business district and between Lille-Flandres and Lille-Europe Train Stations, less than 600 metres from each. ",50.63647023,3.07490923,2,84
Lille,Hotel Lille Europe,7.9,"Located just 250 metres from Lille-Flandres Train Station, this 3-star hotel is set at the heart of the international business district. Pierre Mauroy Stadium is a 17-minute drive away. ",50.63788756,3.072685,2,84
Lille,Moxy Lille City,8.6,"Located in Lille, 300 metres from Coilliot House, Moxy Lille City provides accommodation with a terrace and private parking. ",50.627831,3.063592,2,84
Rouen,Hôtel De La Cathédrale,7.8,"Set just 50 metres from the Rouen Cathedral, in the heart of the city's historic centre, this hotel has a timber-framed façade dating from the 17th century and is located 4 km from the Kindarena...",49.44011681,1.09693363,2,87
Lille,Eklo Hotels Lille,7.5,"Offering a terrace, Eklo Hotels Lille is set in Lille in the Nord-Pas-de-Calais Region, 2 km from Zénith of Lille. ",50.62003296,3.08456697,2,84
Rouen,Appart'HomeCity - Rouen Grand Voile,8.5,Managed by a private host,49.42540118,1.06979833,2,87
Lille,Hotel Chagnot,7.8,"Hotel Chagnot is situated in Lille city centre, directly opposite Lille Flanders Train Station and a 10-minute walk from Lille-Europe Station. It offers modern accommodation and free Wi-Fi access. ",50.63624596,3.06924239,2,84
Rouen,Bel appartement dans le centre historique de Rouen,8.3,Managed by a private host,49.4441468,1.0906474,2,87
Rouen,Hôtel Céline - Hôtel de la Gare,8.0,"This hotel is situated in a quiet street in the city centre of Rouen, a 5-minute walk from Rouen-Rive Droite Train Station. Free Wi-Fi is available in all of the rooms. ",49.44903352,1.09021068,2,87
St Malo,LES AMARRES - Maison familiale 3 chambres - Jardin et place de parking,9.2,"Situated in Saint Malo, 1.9 km from Rochebonne Beach, 2.5 km from Eventail Beach and 2.3 km from Palais du Grand Large, LES AMARRES - Maison familiale 3 chambres - Jardin et place de parking features...",48.6476829,-1.9952037,5,80
Rouen,CosyAppart - LE SAINT OUEN,7.8,"CosyAppart - LE SAINT OUEN in Rouen offers accommodation with free WiFi, less than 1 km from Notre-Dame Cathedral of Rouen, a 12-minute walk from Gare de Rouen Rive Droite and 3.9 km from Rouen...",49.44369966,1.10166196,2,87
Rouen,"Le First, centre ville terrasse et parking",9.0,Managed by a private host,49.4460252,1.0832305,2,87
Rouen,Fiquet de Normanville pour votre bien être en plein coeur historique,9.2,Managed by a private host,49.44244414,1.09804968,2,87
Rouen,La Loge d'Harcourt : Hypercentre chic et moderne,7.9,Managed by a private host,49.44081037,1.08509756,2,87
Rouen,Hotel Morand,7.3,"Hotel Morand is a renovated 17th-century coaching inn that now works as a hotel and is located in the historic centre of Rouen, 400 metres from Saint-Paul SNCF Train Station. ",49.44569975,1.094523,2,87
Lille,Welkeys - Vauban Apartment,8.0,"Just 600 metres from Zoo Park of Lille and 800 metres from Braderie Lille and featuring free WiFi, Welkeys - Vauban Apartment offers accommodation in Lille. ",50.632701,3.047162,2,84
Rouen,Brit Hotel Confort Rouen Centre,7.4,"This hotel is located in the centre of Rouen next to the University of Rouen Faculty Of Medicine and 4 km from the Kindarena Stadium. It offers en suite rooms, a terrace and free WiFi access. ",49.43869536,1.1092034,2,87
Rouen,studi'home,8.3,Managed by a private host,49.443658,1.090557,2,87
Rouen,"Hôtel de Bourgtheroulde, Autograph Collection",8.4,"This boutique hotel is located in Rouen’s historic centre, next to the Gros Horloge and 2 km from Kindarena Stadium. ",49.442178,1.088876,2,87
Rouen,Best Western Plus Hotel Litteraire Gustave Flaubert,8.5,"Situated in the historic centre of Rouen, Best Western Plus Hotel Litteraire Gustave Flaubert offers accommodation with a literary theme in honour of the writer Gustave Flaubert. ",49.44306423,1.08660311,2,87
Rouen,"Holiday Inn Express - Rouen Centre - Rive Gauche, an IHG Hotel",8.3,"Situated in Rouen, 1.7 km from Voltaire Station, Rouen, Holiday Inn Express - Rouen Centre - Rive Gauche, an IHG Hotel features accommodation with a bar, private parking and a shared lounge. ",49.429988,1.072398,2,87
Rouen,Maison individuelle dans ancienne ecurie,9.4,Managed by a private host,49.4502479,1.0864592,2,87
Rouen,Ibis Styles Rouen Centre Cathédrale,7.2,"Featuring free WiFi and a terrace, Ibis Styles Rouen Centre Cathédrale offers pet-friendly accommodation in Rouen, 1.6 km from Rouen Train Station and 3 km from Rouen Kindarena Sports Hall. ",49.437454,1.096183,2,87
Rouen,Cosy'Appart - LA ROSE,7.9,"Cosy'Appart - LA ROSE in Rouen offers accommodation with free WiFi, 1.9 km from Gare de Rouen Rive Droite, 1.6 km from Notre-Dame Cathedral of Rouen and 3.4 km from Voltaire Station, Rouen. ",49.443319,1.1115865,2,87
Rouen,Hotel De Quebec,8.2,"Located in the heart of Rouen, in a peaceful area only a 5-minute walk from the old town and Rouen Cathedral, this hotel includes free Wi-Fi internet access. The Kindarena Stadium is 3 km away. ",49.43783419,1.09725282,2,87
Rouen,DOMITYS Les Mosaïques,8.9,"With Voltaire Station, Rouen reachable in 1 km, DOMITYS Les Mosaïques offers accommodation, a restaurant, a bar, a shared lounge and a garden. ",49.4290146,1.0832807,2,87
Rouen,Les Initiés,8.0,"Located in the heart of Rouen's historical centre, Les Initiés is just a 10-minute walk from Rouen-Rive-Droite Train Station and 3 km from Kindarena Stadium. ",49.44197641,1.09243892,2,87
Rouen,Mercure Rouen Centre Cathédrale,8.1,"This Mercure is located in central Rouen, 160 metres from Notre Dame Cathedral and 3 km from Kindarena Stadium. ",49.44117285,1.09517545,2,87
Rouen,Maison hypercentre Rouen tout confort,8.6,Managed by a private host,49.4446518,1.0913262,2,87
Rouen,"Radisson Blu Hotel, Rouen Centre",8.9,"Radisson Blu Hotel, Rouen Centre features a restaurant serving high qualtiy local dishes, fitness centre, a bar and shared lounge in Rouen. ",49.446441,1.09412,2,87
Rouen,Médié Lounge - Médié Old - by Beds76,9.0,"Médié Lounge - Médié Old - by Beds76 features garden views, free WiFi and free private parking, located in Rouen, 600 metres from Notre-Dame Cathedral of Rouen. ",49.4416755,1.1006621,2,87
Rouen,Le Vieux Carré,8.1,"This hotel is located in central Rouen, in a pedestrian area, just 850 metres from Rouen Rive-Droite Station. It offers en suite rooms and an interior courtyard with flowers and trees. ",49.44332714,1.09457396,2,87
Le Havre,Foch,8.9,"Offering garden views, a casino and free WiFi, Foch offers accommodation in a prime location in Le Havre, within a short distance of Le Havre Beach, Perret Model Appartment and Le Volcan. ",49.4930727,0.1022734,5,80
Le Havre,"Le petit nid perché sous les toits, vue mer",,Managed by a private host,49.4972341,0.0947022,5,80
Le Havre,Oscar Hôtel,7.6,"Oscar Hotel is located in Le Havre's Perret quarter, which is a UNESCO World Heritage Site. It offers free Wi-Fi and views of The Volcan concert venue and the Bassin du Commerce. ",49.48981028,0.10710865,5,80
Le Havre,Residence Hoteliere de l'Estuaire,7.0,"Featuring free WiFi throughout the property, Residence Hoteliere de l'Estuaire is situated in Le Havre, 500 metres from Saint-Michel's Church. ",49.4955557,0.116637,5,80
Le Havre,Residence Monet- F2 à deux pas de toutes commodités,8.0,"Set in Le Havre, 1.8 km from Le Havre Beach, Residence Monet- F2 à deux pas de toutes commodités offers accommodation with a bar, free WiFi, a 24-hour front desk, and a concierge service. ",49.4936742,0.1164884,5,80
Le Havre,Séjour chez le Marin,7.8,"Located 2.5 km from Perret Model Appartment, 3 km from Saint-Michel's Church and 3.2 km from Eglise St-Joseph, Séjour chez le Marin provides accommodation set in Le Havre. ",49.4845138,0.1325153,5,80
Le Havre,Le Petit Coeur,7.3,Managed by a private host,49.4938936,0.1156005,5,80
Le Havre,La Petite Rade Hôtel,8.2,"Located in Le Havre, this hotel is just a few steps from the coast and offers panoramic sea views. It provides direct beach access and free Wi-Fi. ",49.50238471,0.08598089,5,80
Le Havre,Hôtel Carmin,8.3,"Hôtel Carmin is located in Le Havre town centre, 700m from the HAVRE beach It offers en suite rooms and free Wi-Fi. Rooms at the Carmin are equipped with a telephone and a flat-screen TV. ",49.49493852,0.10553956,5,80
Le Havre,Résidence Dauphine,7.5,Résidence Dauphine offers pet-friendly accommodation in Le Havre's historic district. Many restaurants and shops can be found within 150 metres. The beach and the marina are within a 10-minute walk. ,49.48800663,0.11446936,5,80
Le Havre,Hôtel Spa Vent d'Ouest,8.0,"Located just 550 metres from the beach in Le Havre, this hotel is a 5-minute drive from the ferry terminal. ",49.49141928,0.10070756,5,80
Le Havre,Best Western Plus Le Havre Centre Gare,8.4,"Located in central Le Havre, Best Western Plus Le Havre Centre Gare is a 4 star design hotel offering free WiFi just 10 minutes' drive from the beach. ",49.49334357,0.12431771,5,80
Le Havre,Birgit Hôtel Le Havre Centre,8.0,"Welcome to Birgit! When visiting Le Havre, there is nothing better than to stay in this 86-room hotel, completely renovated in 2022. ",49.49308921,0.13096154,5,80
Le Havre,Mercure Le Havre Centre Bassin Du Commerce,7.6,"Mercure Le Havre Centre Bassin du Commerce is located in Le Havre’s city centre, opposite the Bassin du Commerce and near ferry-port. ",49.49033645,0.11681288,5,80
Le Havre,Nomad Hotel le Havre,8.4,Nomad Hotel le Havre is located in Le Havre and offers air-conditioned rooms with free WiFi access and a modern-style decor. Guests can enjoy the on-site bar. ,49.4933176,0.12530688,5,80
Le Havre,L'Atelier d'Oscar,8.4,Managed by a private host,49.491319,0.1157516,5,80
Le Havre,Hotel Spa Le Pasino,8.4,"Located at the heart of Le Havre, Hotel Spa le Pasino features an indoor swimming pool, a spa with sauna and a casino on site. It offers guest rooms with a flat-screen TV. ",49.49117449,0.11193663,5,80
Le Havre,Premiere Classe Le Havre Centre-LES DOCKS,7.6,Magnificent Première Classe Le Havre Centre-Les Docks; ideally located near the Océane stadium and the docks. We offer a personalized reception 24/24 with private and secure parking. ,49.49641693,0.15151234,5,80
Le Havre,Odalys City Le Havre Centre Gare,8.7,"Situated in Le Havre, near Le Volcan, Perret Model Appartment and Saint-Michel's Church, Odalys City Le Havre Centre Gare features free WiFi. ",49.49190808,0.12316179,5,80
Le Havre,Holiday Inn Express - Le Havre Centre,8.2,"Our hotel, located in Le Havre downtown and at 600 meters from the SNCF train station, welcomes you for a professional and leisure stay. ",49.498238,0.128837,5,80
Bayeux,Novotel Bayeux,7.6,The Novotel Bayeux is situated between Caen and Cherbourg in Normandy. It is just 1 km away from the famous Bayeux Tapestry and the historic town centre. ,49.28176922,-0.71848869,5,81
Bayeux,"La Naomath - Maison d'hôtes, Hébergement insolite & Gîte",8.3,"Located just 6 km from the centre of Bayeux, La Naomath offers B&B accommodation in it's restored stone house, a self-catering cottage and a cabin surrounded by well-established gardens. ",49.24770809,-0.65629363,5,81
Bayeux,Château Saint Gilles,9.5,"Situated in Bayeux, 4.6 km from Baron Gerard Museum, Château Saint Gilles features accommodation with a restaurant, free private parking, a seasonal outdoor swimming pool and a bar. ",49.249366,-0.712469,5,81
Le Havre,Le Richelieu,6.8,"Located between the town hall and the cathedral, Hotel Le Richelieu is located in the heart of Le Havre, just a 10-minute walk from the beach and 24 km from Honfleur. ",49.48881105,0.10760218,5,80
Bayeux,Villa Lara Hotel,9.6,Villa Lara is a small luxury boutique hotel in the historic centre of Bayeux. It faces the 11th-century cathedral is is just a 2-minute walk from the Bayeux Tapestry. ,49.27551886,-0.70096448,5,81
Bayeux,La cour des teinturiers,9.4,Managed by a private host,49.2768198,-0.7001433,5,81
Bayeux,Au Loup Historic Apartments,8.4,"Located 550 metres of Cathedrale Notre Dame de Bayeux and a 10-minute walk of Museum of the Bayeux Tapestry in Bayeux, Au Loup Historic Apartments offers accommodation with free WiFi, a seating area,...",49.272798,-0.707556,5,81
Bayeux,Tiny house au cœur de Bayeux,9.8,Managed by a private host,49.2755584,-0.6992038,5,81
Bayeux,Manoir Sainte Victoire,9.6,"Offering garden views, a garden and free WiFi, Manoir Sainte Victoire offers accommodation well situated in Bayeux, within a short distance of Baron Gerard Museum, Cathedrale Notre Dame de Bayeux and...",49.27649171,-0.7057596,5,81
Bayeux,Villa Camélia,8.5,Managed by a private host,49.2799225,-0.7109249,5,81
Le Havre,"The Originals Boutique, Hôtel Le Marignan,Le Havre Centre Gare",8.0,"Set in Le Havre and with Le Havre Beach reachable within 2.3 km, The Originals Boutique, Hôtel Le Marignan, Le Havre Centre Gare offers express check-in and check-out, allergy-free rooms, a bar, free...",49.49227908,0.12310803,5,80
Bayeux,Grand Hôtel du Luxembourg et La Table du Grand Luxembourg,7.7,This 17th-century mansion has been converted into a charming hotel with a gastronomic restaurant and an outdoor heated pool which is accessible all year round. ,49.27842191,-0.70329666,5,81
Bayeux,Le Petit Matin,9.4,"This guest house is set in a building from the 18th century in Bayeux’s historical district. Le Petit Matin offers a garden, a furnished terrace. ",49.27606133,-0.70905536,5,81
Bayeux,Hôtel Le Bayeux,7.9,Hotel Le Bayeux is located in the historic centre of Bayeux in the Lower Normandy region. It offers en suite accommodation with free Wi-Fi internet access. ,49.27415914,-0.70450634,5,81
Bayeux,Chambre d'hôtes Logis de Saint Jean,9.0,"Located in the historic centre of Bayeux, just 350 metres from the tapestry museum, Chambre d'hôtes Logis de Saint Jean offers a courtyard with an outdoor seating area and a communal living room. ",49.27600709,-0.69828361,5,81
Bayeux,La Maison de Mathilde,8.9,"La Maison de Mathilde is set in Bayeux, 100 metres from Baron Gerard Museum and 200 metres from Museum of the Bayeux Tapestry. ",49.27647468,-0.70247008,5,81
Bayeux,"Hôtel particulier ""le clos de la croix""",9.8,"Offering garden views, Hôtel particulier ""le clos de la croix"" in Bayeux offers accommodation, a shared lounge, a garden and a terrace. Free WiFi is featured throughout the property. ",49.277964,-0.701677,5,81
Bayeux,Immolidays,8.1,Managed by a private host,49.27905535,-0.70856206,5,81
Bayeux,Hôtel De Brunville et La Table du Grand Luxembourg,7.9,"Just 400 metres from Bayeux Cathedral, this hotel offers a restaurant with a garden courtyard in the heart of the medieval town. ",49.27815769,-0.70351392,5,81
Bayeux,Hotel Reine Mathilde,8.4,"Hotel Reine Mathilde is situated in the medieval district, just 300 metres from the Bayeux Tapestry Museum. It offers free Wi-Fi access and modern guest rooms with private bathrooms. ",49.27603159,-0.70172489,5,81
Bayeux,L'AURE BLEUE,9.0,Managed by a private host,49.2772596,-0.699284,5,81
Bayeux,Château de Bellefontaine,8.1,"Located 800 metres from central Bayeux and its cathedral, this 18th-century mansion offers guest rooms and a traditional restaurant open for dinner upon reservation. ",49.26974024,-0.68883955,5,81
Bayeux,IKE'S Deluxe APARTMENT in Bayeux,8.0,Managed by a private host,49.279712,-0.70978,5,81
Bayeux,Clos de Bellefontaine B&B,9.7,"Set in a 2000m² park, this 19th-century house is just 200 metres from the Bayeux Tapestry. You can admire the views of the garden from your elegant room or visit Omaha Beach, 6 km away. ",49.27267164,-0.69486111,5,81
Bayeux,Grand appart - CENTRE HISTORIQUE - LUMINEUX - Bayeux - proche Omaha Beach,8.9,Managed by a private host,49.27814786,-0.7062653,5,81
Bayeux,Hotel Le Lion D'Or et Restaurant La Table Du Lion,8.7,This former 18th-century post office is now a charming hotel located in one of Bayeux’s oldest quarters. It offers 24-hour reception and is just 400 metres from the Bayeux Tapestry Museum. ,49.27627832,-0.69836944,5,81
Biarritz,Cosy 1br with terrace and parking in Biarritz 5 min to the beach - Welkeys,8.6,"Offering free WiFi and free private parking, Cosy 1br with terrace and parking in Biarritz 5 min to the beach - Welkeys is located in Biarritz, within just 400 metres of Cote des Basques Beach. ",43.4711003,-1.5661007,4,80
Biarritz,Large studio design w balcony at the heart of Biarritz - Welkeys,8.8,Managed by a private host,43.4826292,-1.560718,4,80
Biarritz,Sofitel Biarritz Le Miramar Thalassa,7.8,"Just a few steps from downtown Biarritz, the Sofitel Biarritz le Miramar overlooks one of the most beautiful beaches of the Basque Coast. ",43.48784796,-1.55444473,4,80
Toulouse,Residhotel Toulouse Centre,7.9,"Located in Toulouse, Residhotel Toulouse Centre is 900 metres from the Toulouse Museum and 500 metres from Palais de Justice Metro Station. It offers apartments and studios with free WiFi access. ",43.59539161,1.44120499,1,84
Toulouse,Citiz Hotel,7.8,"The 4-star Citiz Hotel is located on Place Wilson in Toulouse, a 5-minute walk from the Capitole and a 10-minute walk from Matabiau Train Station. ",43.60566998,1.4491117,1,84
Toulouse,Appart’City Confort Toulouse Aéroport Purpan,7.5,"Appart’City Confort Toulouse Aéroport Purpan is located a 10-minute drive from Place du Capitole in the city centre, and 6 km from Toulouse Stadium. ",43.59868349,1.39488816,1,84
Montauban,Kyriad Montauban Sud - Albasud,6.6,"Located near the A20 motorway, Kyriad Montauban Sud - Albasud is just 8 kilometres from Montauban's town centre and train station. It offers air-conditioned rooms and free WiFi access. ",43.98204027,1.33269846,0,85
Carcassonne,Entre Bastide et Cité,9.1,Managed by a private host,43.20816115,2.35398442,1,86
Aigues Mortes,Hotel L'Escale,8.1,"Set in Aigues-Mortes, within 23 km of Montpellier Arena and 23 km of Parc des Expositions de Montpellier, Hotel L'Escale offers accommodation with a restaurant and a bar, and free WiFi throughout the...",43.56879591,4.18808669,4,60
Aigues Mortes,Les Manades,8.7,Managed by a private host,43.5700838,4.1911109,4,60
Nímes,Hôtel Abalone - Centre Gare,7.0,"Situé sur l'une des plus belles avenues de la ville, l'hôtel n'est qu'à 5 minutes à pied des monuments romains. ",43.8330273,4.36618969,3,63
Collioure,studio collioure avec wifi à 20 m de la plage,8.4,Managed by a private host,42.527415,3.085054,5,65
Avignon,LE PALAIS DES PAPES - AVIGNONSMILE,9.2,Managed by a private host,43.95130865,4.81073503,2,69
Aix en Provence,Appart-Hypercentre-CLIM-2chbQuartierChic,8.3,"In the heart of Aix-en-Provence, set around 31 km from Marseille Saint-Charles Train Station, Appart-Hypercentre-CLIM-2chbQuartierChic offers free WiFi, air conditioning, and household amenities such...",43.52636334,5.44695853,4,58
Cassis,TERRE MARINE - Bel appartement avec terrasse vue mer,8.6,"Boasting sea views, TERRE MARINE - Bel appartement avec terrasse vue mer offers accommodation with a terrace and a kettle, around less than 1 km from Bestouan. ",43.2169655,5.5295811,7,57
Marseille,"Superbe appart 3 p, 10 mn de la plage avec piscine et parking",9.0,Managed by a private host,43.2505303,5.3814817,7,58
Uzès,Boutique Hôtel Entraigues,8.8,"Set in Uzès in the Languedoc-Roussillon Region, 32 km from Avignon, Boutique Hôtel Entraigues features an outdoor pool. The hotel has a sun terrace and views of the city. ",44.01246437,4.42180011,2,68
Cassis,Le Corton - 45m2 - Parking - Jardin - Wifi,10.0,Managed by a private host,43.211712,5.5416742,7,57
Cassis,Appartement avec jardin et parking,8.9,Managed by a private host,43.212567,5.542724,7,57
Cassis,LA FALAISE PARADIS Vue mer 180°,7.7,"LA FALAISE PARADIS Vue mer 180° is a beachfront property situated in Cassis, 1.1 km from Anse de Corton Beach and 1.4 km from Arene. ",43.21529502,5.54623054,7,57
Cassis,Au son des Cigales,9.0,Managed by a private host,43.21508678,5.53094902,7,57
Cassis,AU BORD DE L'EAU Studio climatisé avec Terrasse et vue mer à 40m de la plage,9.1,Managed by a private host,43.21270692,5.53025561,7,57
Cassis,LE SEPT charmant studio aux portes des calanques,9.7,Managed by a private host,43.2175997,5.53235,7,57
Cassis,Home Cassis - Maison Julou - Piscine chauffée,7.6,"Home Cassis - Maison Julou - Piscine chauffée has garden views, free WiFi and free private parking, set in Cassis, 1.4 km from Bestouan. ",43.22207969,5.53792695,7,57
Cassis,Appartement Cassis vue mer d'exception,8.6,Managed by a private host,43.21875954,5.54379929,7,57
Cassis,"L’Aiguade, appartement d'exception à Cassis",,Managed by a private host,43.2141154,5.5338211,7,57
Cassis,CALANQUE D'EN VAU,8.7,Managed by a private host,43.21459857,5.53784404,7,57
Cassis,Cassis Ma Vie Là,9.1,Managed by a private host,43.216905,5.541446,7,57
Cassis,CALYPSO,8.2,"CALYPSO is a beachfront property located in Cassis, 700 metres from Bestouan and 1.2 km from Anse de Corton Beach. ",43.21703056,5.53575003,7,57
Cassis,LOU CIGALOU,9.0,Managed by a private host,43.214926,5.532989,7,57
Cassis,Plage & Calanques Cassis,9.7,"Offering city views, Plage & Calanques Cassis is an accommodation located in Cassis, 1.5 km from Grande Mer and 1.9 km from Anse de Corton Beach. ",43.2120018,5.5276305,7,57
Cassis,Superb bright flat with balcony and sea view in Cassis - Welkeys,8.1,"Offering city views, Superb bright flat with balcony and sea view in Cassis - Welkeys is an accommodation located in Cassis, 500 metres from Grande Mer and 1.1 km from Anse de Corton Beach. ",43.21495674,5.5357946,7,57
Cassis,BALCON SUR MER vue mer,7.7,"BALCON SUR MER vue mer is set in Cassis, 600 metres from Bestouan, 700 metres from Grande Mer, and 1.2 km from Anse de Corton Beach. ",43.21589392,5.53476321,7,57
Cassis,Chez Mamouska,8.0,Managed by a private host,43.210575,5.547913,7,57
